name,admin1,country,lat,lon,tz
Shanghai,Shanghai,CN,31.2222,121.4581,Asia/Shanghai
Beijing,Beijing,CN,39.9075,116.3972,Asia/Shanghai
Shenzhen,Guangdong,CN,22.5455,114.0683,Asia/Shanghai
Guangzhou,Guangdong,CN,23.1167,113.25,Asia/Shanghai
Kinshasa,Kinshasa,CD,-4.3276,15.3136,Africa/Kinshasa
Istanbul,Istanbul,TR,41.0138,28.9497,Europe/Istanbul
Lagos,Lagos,NG,6.4541,3.3947,Africa/Lagos
Ho Chi Minh City,Ho Chi Minh City (HCMC),VN,10.823,106.6296,Asia/Ho_Chi_Minh
Chengdu,Sichuan,CN,30.6667,104.0667,Asia/Shanghai
Lahore,Punjab,PK,31.558,74.3507,Asia/Karachi
Mumbai,Maharashtra,IN,19.0728,72.8826,Asia/Kolkata
São Paulo,São Paulo,BR,-23.5475,-46.6361,America/Sao_Paulo
Mexico City,Mexico City,MX,19.4285,-99.1277,America/Mexico_City
Karachi,Sindh,PK,24.8608,67.0104,Asia/Karachi
Tianjin,Tianjin,CN,39.1422,117.1767,Asia/Shanghai
Delhi,Delhi,IN,28.6519,77.2315,Asia/Kolkata
Wuhan,Hubei,CN,30.5833,114.2667,Asia/Shanghai
Moscow,Moscow,RU,55.752,37.6178,Europe/Moscow
Dhaka,Dhaka Division,BD,23.7104,90.4074,Asia/Dhaka
Seoul,Seoul,KR,37.566,126.9784,Asia/Seoul
Tokyo,Tokyo,JP,35.6895,139.6917,Asia/Tokyo
Dongguan,Guangdong,CN,23.018,113.7487,Asia/Shanghai
Cairo,Cairo,EG,30.0626,31.2497,Africa/Cairo
Xi’an,Shaanxi,CN,34.2583,108.9286,Asia/Shanghai
Johannesburg,Gauteng,ZA,-26.2023,28.0436,Africa/Johannesburg
Nanjing,Jiangsu,CN,32.0617,118.7778,Asia/Shanghai
Hangzhou,Zhejiang,CN,30.2936,120.1614,Asia/Shanghai
Foshan,Guangdong,CN,23.0268,113.1315,Asia/Shanghai
London,England,GB,51.5085,-0.1257,Europe/London
New York City,New York,US,40.7143,-74.006,America/New_York
Jakarta,Jakarta,ID,-6.2146,106.8451,Asia/Jakarta
Bengaluru,Karnataka,IN,12.9719,77.5937,Asia/Kolkata
Hanoi,Hanoi,VN,21.0245,105.8412,Asia/Bangkok
Taipei,Taiwan,TW,25.0531,121.5264,Asia/Taipei
Lima,Lima Province,PE,-12.0432,-77.0282,America/Lima
Bogotá,Bogota D.C.,CO,4.6097,-74.0817,America/Bogota
Chongqing,Chongqing,CN,29.5603,106.5577,Asia/Shanghai
Hong Kong,,HK,22.2783,114.1747,Asia/Hong_Kong
Baghdad,Baghdad,IQ,33.3406,44.4009,Asia/Baghdad
Wuzhong,Ningxia,CN,37.9867,106.201,Asia/Shanghai
Qingdao,Shandong,CN,36.0649,120.3804,Asia/Shanghai
Tehran,Tehran,IR,35.6944,51.4215,Asia/Tehran
Shenyang,Liaoning,CN,41.7922,123.4328,Asia/Shanghai
Hyderabad,Telangana,IN,17.384,78.4564,Asia/Kolkata
Rio de Janeiro,Rio de Janeiro,BR,-22.9064,-43.1822,America/Sao_Paulo
Suzhou,Jiangsu,CN,31.3041,120.5954,Asia/Shanghai
Puxi,Shanghai,CN,31.2441,121.4659,Asia/Shanghai
Ahmedabad,Gujarat,IN,23.0258,72.5873,Asia/Kolkata
Abidjan,Abidjan Autonomous District,CI,5.3544,-4.0017,Africa/Abidjan
Pudong,Shanghai,CN,31.24,121.5009,Asia/Shanghai
Sydney,New South Wales,AU,-33.8678,151.2073,Australia/Sydney
Singapore,,SG,1.2897,103.8501,Asia/Singapore
Melbourne,Victoria,AU,-37.814,144.9633,Australia/Melbourne
Dar es Salaam,Dar es Salaam Region,TZ,-6.8235,39.2695,Africa/Dar_es_Salaam
Saint Petersburg,St.-Petersburg,RU,59.9386,30.3141,Europe/Moscow
Alexandria,Alexandria,EG,31.2018,29.9158,Africa/Cairo
Harbin,Heilongjiang,CN,45.75,126.65,Asia/Shanghai
Bangkok,Bangkok,TH,13.754,100.5014,Asia/Bangkok
Hefei,Anhui,CN,31.8639,117.2808,Asia/Shanghai
Dalian,Liaoning,CN,38.9122,121.6022,Asia/Shanghai
Kano,Kano State,NG,12.0001,8.5167,Africa/Lagos
Santiago,Santiago Metropolitan,CL,-33.4569,-70.6483,America/Santiago
Cape Town,Western Cape,ZA,-33.9258,18.4232,Africa/Johannesburg
Peshawar,Khyber Pakhtunkhwa,PK,34.008,71.5785,Asia/Karachi
Changchun,Jilin,CN,43.88,125.3228,Asia/Shanghai
Jeddah,Mecca Region,SA,21.4901,39.1862,Asia/Riyadh
Chennai,Tamil Nadu,IN,13.0878,80.2785,Asia/Kolkata
Kolkata,West Bengal,IN,22.5626,88.363,Asia/Kolkata
Xiamen,Fujian,CN,24.4798,118.0819,Asia/Shanghai
Surat,Gujarat,IN,21.1959,72.8302,Asia/Kolkata
Yangon,Yangon,MM,16.8053,96.1561,Asia/Yangon
Bao'an,Guangdong,CN,22.5521,113.8829,Asia/Shanghai
Kabul,Kabul,AF,34.5281,69.1723,Asia/Kabul
Nairobi,Nairobi County,KE,-1.2833,36.8167,Africa/Nairobi
Wuxi,Jiangsu,CN,31.5689,120.2886,Asia/Shanghai
Giza,Giza,EG,30.0094,31.2086,Africa/Cairo
Jinan,Shandong,CN,36.6683,116.9972,Asia/Shanghai
Taiyuan,Shanxi,CN,37.8694,112.5603,Asia/Shanghai
Zhengzhou,Henan,CN,34.7578,113.6486,Asia/Shanghai
Bamako,Bamako,ML,12.6091,-7.9752,Africa/Bamako
Riyadh,Riyadh Region,SA,24.6877,46.7219,Asia/Riyadh
New Taipei City,Taipei,TW,25.062,121.457,Asia/Taipei
New Territories,00,HK,22.4244,114.111,Asia/Hong_Kong
Shijiazhuang,Hebei,CN,38.0414,114.4786,Asia/Shanghai
Chattogram,Chittagong,BD,22.3384,91.8317,Asia/Dhaka
Addis Ababa,Addis Ababa,ET,9.025,38.7469,Africa/Addis_Ababa
Kunming,Yunnan,CN,25.0389,102.7183,Asia/Shanghai
Zhongshan,Guangdong,CN,22.5231,113.3791,Asia/Shanghai
Nanning,Guangxi,CN,22.8167,108.3167,Asia/Shanghai
Shantou,Guangdong,CN,23.3549,116.6788,Asia/Shanghai
Los Angeles,California,US,34.0522,-118.2437,America/Los_Angeles
Faisalabad,Punjab,PK,31.4155,73.0897,Asia/Karachi
Dubai,Dubai,AE,25.0772,55.3093,Asia/Dubai
Yokohama,Kanagawa,JP,35.4333,139.65,Asia/Tokyo
Fuzhou,Fujian,CN,26.0614,119.3061,Asia/Shanghai
Ningbo,Zhejiang,CN,29.8782,121.5494,Asia/Shanghai
Casablanca,Casablanca-Settat,MA,33.5883,-7.6114,Africa/Casablanca
Ibadan,Oyo State,NG,7.3776,3.9059,Africa/Lagos
Puyang,Zhejiang,CN,29.4568,119.8887,Asia/Shanghai
Ankara,Ankara,TR,39.9199,32.8543,Europe/Istanbul
Shiyan,Hubei,CN,32.6475,110.7781,Asia/Shanghai
Berlin,State of Berlin,DE,52.5244,13.4105,Europe/Berlin
Tangshan,Hebei,CN,39.6438,118.1832,Asia/Shanghai
Rawalpindi,Punjab,PK,33.5973,73.0479,Asia/Karachi
Lüliang,Shanxi,CN,37.5192,111.1444,Asia/Shanghai
Durban,KwaZulu-Natal,ZA,-29.8579,31.0292,Africa/Johannesburg
Changzhou,Jiangsu,CN,31.7736,119.954,Asia/Shanghai
Busan,Busan,KR,35.1017,129.03,Asia/Seoul
Madrid,Madrid,ES,40.4165,-3.7026,Europe/Madrid
Pyongyang,Pyongyang,KP,39.0339,125.7543,Asia/Pyongyang
Zibo,Shandong,CN,36.7906,118.0633,Asia/Shanghai
Pune,Maharashtra,IN,18.5196,73.8554,Asia/Kolkata
Bursa,Bursa Province,TR,40.1956,29.0601,Europe/Istanbul
Changsha,Hunan,CN,28.1987,112.9709,Asia/Shanghai
Quezon City,National Capital Region,PH,14.6488,121.0509,Asia/Manila
Jaipur,Rajasthan,IN,26.9196,75.7878,Asia/Kolkata
Guiyang,Guizhou,CN,26.5833,106.7167,Asia/Shanghai
Ürümqi,Xinjiang,CN,43.801,87.6005,Asia/Urumqi
Surabaya,East Java,ID,-7.2492,112.7508,Asia/Jakarta
Incheon,Incheon,KR,37.4565,126.7052,Asia/Seoul
Lanzhou,Gansu,CN,36.057,103.8399,Asia/Shanghai
Caracas,Distrito Federal,VE,10.488,-66.8792,America/Caracas
Kyiv,Kyiv City,UA,50.4547,30.5238,Europe/Kyiv
İzmir,İzmir Province,TR,38.4127,27.1384,Europe/Istanbul
Huizhou,Guangdong,CN,23.1115,114.4152,Asia/Shanghai
Buenos Aires,Buenos Aires F.D.,AR,-34.6131,-58.3772,America/Argentina/Buenos_Aires
Haikou,Hainan,CN,20.0342,110.3465,Asia/Shanghai
Taichung,Taiwan,TW,24.1469,120.6839,Asia/Taipei
Kanpur,Uttar Pradesh,IN,26.4652,80.3498,Asia/Kolkata
Toronto,Ontario,CA,43.7064,-79.3986,America/Toronto
Quito,Pichincha,EC,-0.2298,-78.525,America/Guayaquil
Brisbane,Queensland,AU,-27.4679,153.0281,Australia/Brisbane
Luanda,Luanda,AO,-8.8368,13.2343,Africa/Luanda
Osaka,Osaka,JP,34.6938,135.5011,Asia/Tokyo
Linyi,Shandong,CN,35.0631,118.3428,Asia/Shanghai
Baoding,Hebei,CN,38.8729,115.4625,Asia/Shanghai
Kaohsiung,Takao,TW,22.6163,120.3133,Asia/Taipei
Brooklyn,New York,US,40.6501,-73.9496,America/New_York
Guayaquil,Guayas,EC,-2.1962,-79.8862,America/Guayaquil
Belo Horizonte,Minas Gerais,BR,-19.9208,-43.9378,America/Sao_Paulo
Minhang,Shanghai,CN,31.1088,121.3747,Asia/Shanghai
Bazhong,Sichuan,CN,31.8694,106.7443,Asia/Shanghai
Salvador,Bahia,BR,-12.9756,-38.491,America/Bahia
Abuja,FCT,NG,9.0579,7.4951,Africa/Lagos
Gazipur,Dhaka Division,BD,23.9984,90.4223,Asia/Dhaka
Chicago,Illinois,US,41.85,-87.65,America/Chicago
Wenzhou,Zhejiang,CN,27.9994,120.6668,Asia/Shanghai
Bekasi,West Java,ID,-6.2349,106.9896,Asia/Jakarta
Dakar,Dakar,SN,14.6937,-17.4441,Africa/Dakar
Haiphong,Hai Phong,VN,20.8648,106.6834,Asia/Bangkok
Yunfu,Guangdong,CN,22.9279,112.0381,Asia/Shanghai
Navi Mumbai,Maharashtra,IN,19.0368,73.0158,Asia/Kolkata
Mogadishu,Banaadir,SO,2.0371,45.3438,Africa/Mogadishu
Kumasi,Ashanti,GH,6.6885,-1.6244,Africa/Accra
Bandung,West Java,ID,-6.9222,107.6069,Asia/Jakarta
Gujranwala,Punjab,PK,32.1557,74.187,Asia/Karachi
Huai'an,Jiangsu,CN,33.5886,119.0192,Asia/Shanghai
Medan,North Sumatra,ID,3.5833,98.6667,Asia/Jakarta
Lucknow,Uttar Pradesh,IN,26.8393,80.9231,Asia/Kolkata
Ouagadougou,Centre,BF,12.3657,-1.5339,Africa/Ouagadougou
Nagpur,Maharashtra,IN,21.1463,79.0849,Asia/Kolkata
Fortaleza,Ceará,BR,-3.7172,-38.5431,America/Fortaleza
Cali,Valle del Cauca Department,CO,3.4305,-76.5199,America/Bogota
Perth,Western Australia,AU,-31.9522,115.8614,Australia/Perth
Daegu,Daegu,KR,35.8703,128.5911,Asia/Seoul
Algiers,Algiers,DZ,36.7323,3.0875,Africa/Algiers
Nanchang,Jiangxi,CN,28.684,115.8531,Asia/Shanghai
Baku,Baki,AZ,40.3777,49.892,Asia/Baku
Hohhot,Inner Mongolia,CN,40.8106,111.6522,Asia/Shanghai
Nagoya,Aichi,JP,35.1815,136.9064,Asia/Tokyo
Rome,Lazio,IT,41.8919,12.5113,Europe/Rome
Queens,New York,US,40.6815,-73.8365,America/New_York
Houston,Texas,US,29.7633,-95.3633,America/Chicago
Mashhad,Razavi Khorasan,IR,36.2981,59.6057,Asia/Tehran
Shaoxing,Zhejiang,CN,30.0024,120.5786,Asia/Shanghai
Nantong,Jiangsu,CN,32.0303,120.8747,Asia/Shanghai
Baoshan,Shanghai,CN,31.4084,121.4896,Asia/Shanghai
Kowloon,00,HK,22.3167,114.1833,Asia/Hong_Kong
Yantai,Shandong,CN,37.4765,121.4408,Asia/Shanghai
Gaziantep,Gaziantep,TR,37.0594,37.3825,Europe/Istanbul
Lubumbashi,Haut-Katanga,CD,-11.6609,27.4794,Africa/Lubumbashi
Manaus,Amazonas,BR,-3.1019,-60.025,America/Manaus
Lusaka,Lusaka Province,ZM,-15.4067,28.2871,Africa/Lusaka
Brasília,Federal District,BR,-15.7797,-47.9297,America/Sao_Paulo
Zhuhai,Guangdong,CN,22.2769,113.5678,Asia/Shanghai
Santo Domingo,Nacional,DO,18.4719,-69.8923,America/Santo_Domingo
Lomé,Maritime,TG,6.1287,1.2215,Africa/Lome
Multan,Punjab,PK,30.1968,71.4782,Asia/Karachi
Havana,Havana,CU,23.133,-82.383,America/Havana
Depok,West Java,ID,-6.4,106.8186,Asia/Jakarta
Baotou,Inner Mongolia,CN,40.6516,109.8439,Asia/Shanghai
Paris,Île-de-France,FR,48.8534,2.3488,Europe/Paris
Coimbatore,Tamil Nadu,IN,11.0055,76.9661,Asia/Kolkata
Qingyang,Gansu,CN,35.7098,107.6445,Asia/Shanghai
Port Harcourt,Rivers State,NG,4.7774,7.0134,Africa/Lagos
Pretoria,Gauteng,ZA,-25.7449,28.1878,Africa/Johannesburg
Córdoba,Cordoba,AR,-31.4065,-64.1885,America/Argentina/Cordoba
Mbuji-Mayi,East Kasai,CD,-6.136,23.5898,Africa/Lubumbashi
Aleppo,Aleppo,SY,36.2012,37.1612,Asia/Damascus
Kunshan,Jiangsu,CN,31.3776,120.9543,Asia/Shanghai
Al Mawşil al Jadīdah,Nineveh,IQ,36.3327,43.1056,Asia/Baghdad
Weifang,Shandong,CN,36.71,119.1019,Asia/Shanghai
Zunyi,Guizhou,CN,27.6867,106.9072,Asia/Shanghai
Al Başrah al Qadīmah,Basra,IQ,30.5032,47.8151,Asia/Baghdad
La Paz,La Paz Department,BO,-16.5,-68.15,America/La_Paz
Lianyungang,Jiangsu,CN,34.5984,119.2156,Asia/Shanghai
Medellín,Antioquia,CO,6.245,-75.5715,America/Bogota
Indore,Madhya Pradesh,IN,22.7179,75.8333,Asia/Kolkata
Brazzaville,Brazzaville,CG,-4.2661,15.2832,Africa/Brazzaville
Tashkent,Tashkent,UZ,41.2647,69.2163,Asia/Tashkent
Ganzhou,Jiangxi,CN,25.8466,114.9326,Asia/Shanghai
Almaty,Almaty,KZ,43.2525,76.9115,Asia/Almaty
Khartoum,Khartoum,SD,15.5518,32.5324,Africa/Khartoum
Hamburg,Hamburg,DE,53.5507,9.993,Europe/Berlin
Sapporo,Hokkaido,JP,43.0667,141.35,Asia/Tokyo
Songjiang,Shanghai,CN,31.0344,121.2233,Asia/Shanghai
Accra,Greater Accra,GH,5.556,-0.1969,Africa/Accra
Curitiba,Paraná,BR,-25.4278,-49.2731,America/Sao_Paulo
Ordos,Inner Mongolia,CN,39.6086,109.7816,Asia/Shanghai
Sanaa,Amanat Alasimah,YE,15.3545,44.2065,Asia/Aden
Conakry,Conakry,GN,9.538,-13.6773,Africa/Conakry
Tangerang,Banten,ID,-6.1781,106.63,Asia/Jakarta
Tijuana,Baja California,MX,32.5027,-117.0037,America/Tijuana
Hyderabad,Sindh,PK,25.3969,68.3772,Asia/Karachi
Beirut,Beirut,LB,33.8933,35.5016,Asia/Beirut
Jieyang,Guangdong,CN,23.5418,116.3658,Asia/Shanghai
Jilin,Jilin,CN,43.8465,126.5608,Asia/Shanghai
Jiading,Shanghai,CN,31.3858,121.2446,Asia/Shanghai
Bucharest,Bucharest,RO,44.4323,26.1063,Europe/Bucharest
Camayenne,Conakry,GN,9.535,-13.6878,Africa/Conakry
Kakamega,Kakamega County,KE,0.2842,34.7523,Africa/Nairobi
Shangqiu,Henan,CN,34.4143,115.6561,Asia/Shanghai
Nanchong,Sichuan,CN,30.7951,106.0847,Asia/Shanghai
Tainan,Taiwan,TW,22.9908,120.2133,Asia/Taipei
Datong,Shanxi,CN,40.0936,113.2914,Asia/Shanghai
Kaduna,Kaduna State,NG,10.5264,7.4388,Africa/Lagos
Omdurman,Khartoum,SD,15.6445,32.4777,Africa/Khartoum
Davao,Davao Region,PH,7.0731,125.6128,Asia/Manila
Thāne,Maharashtra,IN,19.197,72.9635,Asia/Kolkata
Iztapalapa,Mexico City,MX,19.3553,-99.0622,America/Mexico_City
Diyarbakır,Diyarbakır Province,TR,37.9136,40.2172,Europe/Istanbul
Santa Cruz de la Sierra,Santa Cruz Department,BO,-17.7863,-63.1812,America/La_Paz
Vadodara,Gujarat,IN,22.2994,73.2081,Asia/Kolkata
Adana,Adana,TR,36.9862,35.3253,Europe/Istanbul
Nanyang,Henan,CN,33.0052,112.5466,Asia/Shanghai
Abu Dhabi,Abu Dhabi,AE,24.4512,54.397,Asia/Dubai
Palembang,South Sumatra,ID,-2.9167,104.7458,Asia/Jakarta
Sharjah,Sharjah,AE,25.3342,55.4122,Asia/Dubai
Bhopal,Madhya Pradesh,IN,23.2547,77.4029,Asia/Kolkata
Jiangmen,Guangdong,CN,22.5833,113.0833,Asia/Shanghai
Benin City,Edo State,NG,6.3381,5.6258,Africa/Lagos
Jiangyin,Jiangsu,CN,31.911,120.263,Asia/Shanghai
Fuyang,Anhui,CN,32.9,115.8167,Asia/Shanghai
Montréal,Quebec,CA,45.5088,-73.5878,America/Toronto
Bayan Nur,Inner Mongolia,CN,40.7414,107.386,Asia/Shanghai
Maracaibo,Zulia,VE,10.6423,-71.6109,America/Caracas
Chaozhou,Guangdong,CN,23.654,116.6226,Asia/Shanghai
Minsk,Minsk City,BY,53.9002,27.5665,Europe/Minsk
Budapest,Budapest,HU,47.4984,19.0404,Europe/Budapest
Qingyuan,Guangdong,CN,23.7,113.0333,Asia/Shanghai
Tai’an,Shandong,CN,36.1853,117.12,Asia/Shanghai
Rasapūdipalem,Andhra Pradesh,IN,17.7331,83.3162,Asia/Kolkata
Pimpri-Chinchwad,Maharashtra,IN,18.6187,73.8037,Asia/Kolkata
Caloocan,National Capital Region,PH,14.6495,120.9679,Asia/Manila
Warsaw,Mazovia,PL,52.2298,21.0118,Europe/Warsaw
Soweto,Gauteng,ZA,-26.2678,27.8585,Africa/Johannesburg
Semarang,Central Java,ID,-6.9931,110.4208,Asia/Jakarta
Puebla,Puebla,MX,19.0478,-98.2072,America/Mexico_City
Vienna,State of Vienna,AT,48.2085,16.3721,Europe/Vienna
Barcelona,Catalonia,ES,41.3888,2.159,Europe/Madrid
Patna,Bihar,IN,25.5941,85.1356,Asia/Kolkata
Mosul,Nineveh,IQ,36.335,43.1189,Asia/Baghdad
Kallakurichi,Tamil Nadu,IN,11.7338,78.9592,Asia/Kolkata
Kampala,Central Region,UG,0.3163,32.5822,Africa/Kampala
Xining,Qinghai,CN,36.6255,101.7574,Asia/Shanghai
Changshu,Jiangsu,CN,31.6461,120.7422,Asia/Shanghai
Huainan,Anhui,CN,32.6264,116.9969,Asia/Shanghai
Rabat,Rabat-Salé-Kénitra,MA,34.0132,-6.8326,Africa/Casablanca
Recife,Pernambuco,BR,-8.0539,-34.8811,America/Recife
Phoenix,Arizona,US,33.4484,-112.074,America/Phoenix
Suzhou,Anhui,CN,33.6361,116.9789,Asia/Shanghai
Ecatepec de Morelos,México,MX,19.6049,-99.0606,America/Mexico_City
Lu’an,Anhui,CN,31.7356,116.5169,Asia/Shanghai
Valencia,Carabobo,VE,10.1615,-68.0004,America/Caracas
Ludhiana,Punjab,IN,30.912,75.8538,Asia/Kolkata
Yancheng,Jiangsu,CN,33.3575,120.1573,Asia/Shanghai
Novosibirsk,Novosibirsk Oblast,RU,55.0226,82.9317,Asia/Novosibirsk
Erbil,Erbil,IQ,36.1912,44.0094,Asia/Baghdad
Fukuoka,Fukuoka,JP,33.6,130.4167,Asia/Tokyo
Taizhou,Jiangsu,CN,32.4907,119.9081,Asia/Shanghai
Daqing,Heilongjiang,CN,46.5833,125.0,Asia/Shanghai
Manila,National Capital Region,PH,14.6042,120.9822,Asia/Manila
Wuhu,Anhui,CN,31.3526,118.4295,Asia/Shanghai
Santiago de Querétaro,Querétaro,MX,20.5881,-100.3881,America/Mexico_City
Dazhou,Sichuan,CN,31.2106,107.4631,Asia/Shanghai
Yangzhou,Jiangsu,CN,32.3972,119.4358,Asia/Shanghai
León de los Aldama,Guanajuato,MX,21.1218,-101.6825,America/Mexico_City
Makkah,Mecca Region,SA,21.4266,39.8256,Asia/Riyadh
Philadelphia,Pennsylvania,US,39.9524,-75.1636,America/New_York
Phnom Penh,Phnom Penh,KH,11.5625,104.916,Asia/Phnom_Penh
Guilin,Guangxi,CN,25.2802,110.2964,Asia/Shanghai
Damascus,Damascus Governorate,SY,33.5102,36.2913,Asia/Damascus
Quetta,Balochistan,PK,30.1841,67.0014,Asia/Karachi
Zhaoqing,Guangdong,CN,23.0489,112.4609,Asia/Shanghai
Onitsha,Anambra,NG,6.1498,6.7857,Africa/Lagos
Mianyang,Sichuan,CN,31.4678,104.6817,Asia/Shanghai
Auckland,Auckland,NZ,-36.8485,174.7635,Pacific/Auckland
Isfahan,Isfahan,IR,32.6525,51.6746,Asia/Tehran
Wanzhou,Chongqing,CN,30.7645,108.3959,Asia/Shanghai
Astana,Astana,KZ,51.1801,71.446,Asia/Almaty
Harare,Harare,ZW,-17.8277,31.0534,Africa/Harare
Monrovia,Montserrado County,LR,6.3005,-10.7969,Africa/Monrovia
Putian,Fujian,CN,25.4394,119.0103,Asia/Shanghai
Kawasaki,Kanagawa,JP,35.5206,139.7172,Asia/Tokyo
Goiânia,Goiás,BR,-16.6786,-49.2539,America/Sao_Paulo
San Antonio,Texas,US,29.4241,-98.4936,America/Chicago
Kobe,Hyōgo,JP,34.6913,135.183,Asia/Tokyo
Stockholm,Stockholm,SE,59.3294,18.0687,Europe/Stockholm
Ciudad Juárez,Chihuahua,MX,31.7202,-106.4608,America/Ciudad_Juarez
Cần Thơ,Can Tho City,VN,10.0371,105.7883,Asia/Ho_Chi_Minh
Munich,Bavaria,DE,48.1374,11.5755,Europe/Berlin
Khulna,Khulna Division,BD,22.8098,89.5644,Asia/Dhaka
Belém,Pará,BR,-1.4558,-48.5044,America/Belem
Yekaterinburg,Sverdlovsk Oblast,RU,56.8573,60.6153,Asia/Yekaterinburg
Porto Alegre,Rio Grande do Sul,BR,-30.0328,-51.2302,America/Sao_Paulo
Yinchuan,Ningxia,CN,38.4681,106.2731,Asia/Shanghai
Manhattan,New York,US,40.7834,-73.9663,America/New_York
Nashik,Maharashtra,IN,19.9973,73.791,Asia/Kolkata
Taizhou,Zhejiang,CN,28.6627,121.4331,Asia/Shanghai
Asunción,Asuncion,PY,-25.2865,-57.647,America/Asuncion
Yiwu,Zhejiang,CN,29.3151,120.0768,Asia/Shanghai
Zapopan,Jalisco,MX,20.7211,-103.3874,America/Mexico_City
Makassar,South Sulawesi,ID,-5.1486,119.4319,Asia/Makassar
Adelaide,South Australia,AU,-34.9287,138.5986,Australia/Adelaide
Quanzhou,Fujian,CN,24.9139,118.5858,Asia/Shanghai
Madurai,Tamil Nadu,IN,9.919,78.1195,Asia/Kolkata
Jinhua,Zhejiang,CN,29.1068,119.6442,Asia/Shanghai
Kyoto,Kyoto,JP,35.0211,135.7538,Asia/Tokyo
Cixi,Zhejiang,CN,30.1764,121.2457,Asia/Shanghai
Changde,Hunan,CN,29.0321,111.6984,Asia/Shanghai
Kuala Lumpur,Kuala Lumpur,MY,3.1412,101.6865,Asia/Kuala_Lumpur
Kayseri,Kayseri,TR,38.7322,35.4853,Europe/Istanbul
Kaifeng,Henan,CN,34.7986,114.3074,Asia/Shanghai
Anshan,Liaoning,CN,41.1236,122.99,Asia/Shanghai
Karaj,Alborz Province,IR,35.8327,50.9915,Asia/Tehran
Kathmandu,Bagmati Province,NP,27.7017,85.3206,Asia/Kathmandu
Daejeon,Daejeon,KR,36.3491,127.3849,Asia/Seoul
Baoji,Shaanxi,CN,34.3678,107.237,Asia/Shanghai
Suqian,Jiangsu,CN,33.9492,118.2958,Asia/Shanghai
Liuzhou,Guangxi,CN,24.324,109.407,Asia/Shanghai
Tirunelveli,Tamil Nadu,IN,8.7274,77.6838,Asia/Kolkata
Konya,Konya,TR,37.8713,32.4846,Europe/Istanbul
Zhangjiagang,Jiangsu,CN,31.865,120.5389,Asia/Shanghai
Agra,Uttar Pradesh,IN,27.1833,78.0167,Asia/Kolkata
South Tangerang,Banten,ID,-6.2886,106.7179,Asia/Jakarta
Tabriz,East Azerbaijan,IR,38.08,46.2919,Asia/Tehran
Kharkiv,Kharkiv,UA,49.9818,36.2548,Europe/Kyiv
Jinjiang,Fujian,CN,24.8198,118.5742,Asia/Shanghai
Faridabad,Haryana,IN,28.4112,77.3132,Asia/Kolkata
Bozhou,Anhui,CN,33.8772,115.7703,Asia/Shanghai
Qujing,Yunnan,CN,25.4833,103.7833,Asia/Shanghai
San Diego,California,US,32.7157,-117.1647,America/Los_Angeles
Gwangju,Gwangju,KR,35.1547,126.9156,Asia/Seoul
Zhanjiang,Guangdong,CN,21.2339,110.3875,Asia/Shanghai
Fushun,Liaoning,CN,41.8867,123.9436,Asia/Shanghai
Rājkot,Gujarat,IN,22.2916,70.7932,Asia/Kolkata
Luoyang,Henan,CN,34.6735,112.4368,Asia/Shanghai
Guadalajara,Jalisco,MX,20.6774,-103.3475,America/Mexico_City
The Bronx,New York,US,40.8499,-73.8664,America/New_York
Guankou,Hunan,CN,28.1586,113.6271,Asia/Shanghai
Huế,Thừa Thiên Huế Province,VN,16.4619,107.5955,Asia/Bangkok
Milan,Lombardy,IT,45.4643,9.1895,Europe/Rome
Najafgarh,Delhi,IN,28.6092,76.9798,Asia/Kolkata
N'Djamena,N’Djaména,TD,12.1067,15.0444,Africa/Ndjamena
Handan,Hebei,CN,36.61,114.4876,Asia/Shanghai
Bannu,Khyber Pakhtunkhwa,PK,32.9853,70.604,Asia/Karachi
Yichang,Hubei,CN,30.7144,111.2847,Asia/Shanghai
Antananarivo,Analamanga,MG,-18.9137,47.5361,Indian/Antananarivo
Heze,Shandong,CN,35.2393,115.4736,Asia/Shanghai
Guarulhos,São Paulo,BR,-23.4628,-46.5333,America/Sao_Paulo
Abobo,Abidjan Autonomous District,CI,5.4161,-4.0159,Africa/Abidjan
Jamshedpur,Jharkhand,IN,22.8028,86.1855,Asia/Kolkata
Douala,Littoral,CM,4.0483,9.7043,Africa/Douala
Antalya,Antalya,TR,36.9081,30.6956,Europe/Istanbul
Basrah,Basra,IQ,30.5085,47.7804,Asia/Baghdad
Dallas,Texas,US,32.7831,-96.8067,America/Chicago
Saitama,Saitama,JP,35.9081,139.6566,Asia/Tokyo
Gorakhpur,Haryana,IN,29.4477,75.6721,Asia/Kolkata
Niamey,Niamey,NE,13.5137,2.1098,Africa/Niamey
Liupanshui,Guizhou,CN,26.5944,104.8333,Asia/Shanghai
Taguig,National Capital Region,PH,14.5243,121.0792,Asia/Manila
Maoming,Guangdong,CN,21.6663,110.9136,Asia/Shanghai
Calgary,Alberta,CA,51.0501,-114.0853,America/Edmonton
Tripoli,Tripoli,LY,32.8874,13.1873,Africa/Tripoli
Madinah,Medina Region,SA,24.4686,39.6142,Asia/Riyadh
Yaoundé,Centre,CM,3.8667,11.5167,Africa/Douala
Batam,Riau,ID,1.1494,104.0249,Asia/Jakarta
Qinzhou,Guangxi,CN,21.9825,108.6506,Asia/Shanghai
Luohe,Henan,CN,33.5742,114.0326,Asia/Shanghai
Xiangyang,Hubei,CN,32.0422,112.1448,Asia/Shanghai
Yangjiang,Guangdong,CN,21.8556,111.9627,Asia/Shanghai
Yixing,Jiangsu,CN,31.3606,119.8202,Asia/Shanghai
Pimpri,Maharashtra,IN,18.6229,73.807,Asia/Kolkata
Da Nang,Da Nang City,VN,16.0678,108.2208,Asia/Ho_Chi_Minh
Amman,Amman,JO,31.9552,35.945,Asia/Amman
Budta,Autonomous Region in Muslim Mindanao,PH,7.2042,124.4397,Asia/Manila
Belgrade,Central Serbia,RS,44.804,20.4651,Europe/Belgrade
Biên Hòa,Dong Nai,VN,10.9447,106.8243,Asia/Ho_Chi_Minh
Qingpu,Shanghai,CN,31.1539,121.1141,Asia/Shanghai
Montevideo,Montevideo Department,UY,-34.9033,-56.1882,America/Montevideo
Xuchang,Henan,CN,34.0319,113.863,Asia/Shanghai
Kalyān,Maharashtra,IN,19.2437,73.1355,Asia/Kolkata
Zigong,Sichuan,CN,29.3416,104.7769,Asia/Shanghai
Nizhniy Novgorod,Nizhny Novgorod Oblast,RU,56.3287,44.002,Europe/Moscow
Jepara,Central Java,ID,-6.5924,110.671,Asia/Jakarta
Maputo,Maputo City,MZ,-25.9655,32.5832,Africa/Maputo
Xuzhou,Jiangsu,CN,34.2044,117.2839,Asia/Shanghai
Dammam,Eastern Province,SA,26.4344,50.1033,Asia/Riyadh
Ra’s Bayrūt,Beirut,LB,33.9,35.4833,Asia/Beirut
Neijiang,Sichuan,CN,29.5835,105.0622,Asia/Shanghai
Shiraz,Fars,IR,29.6103,52.5311,Asia/Tehran
Heshan,Hunan,CN,28.5694,112.3473,Asia/Shanghai
Dombivali,Maharashtra,IN,19.2167,73.0833,Asia/Kolkata
Kananga,Kasai-Central,CD,-5.8962,22.4166,Africa/Lubumbashi
Kazan,Tatarstan Republic,RU,55.7887,49.1221,Europe/Moscow
Jining,Shandong,CN,35.405,116.5814,Asia/Shanghai
Barquisimeto,Lara,VE,10.0647,-69.357,America/Caracas
Shubrā al Khaymah,Qalyubia,EG,30.1251,31.2505,Africa/Cairo
Putuo,Shanghai,CN,31.251,121.3897,Asia/Shanghai
Port-au-Prince,Ouest,HT,18.5435,-72.3388,America/Port-au-Prince
Suwon,Gyeonggi-do,KR,37.2911,127.0089,Asia/Seoul
Xinyang,Henan,CN,32.1228,114.0656,Asia/Shanghai
Liaocheng,Shandong,CN,36.4506,116.0025,Asia/Shanghai
Jinzhong,Shanxi,CN,37.684,112.7547,Asia/Shanghai
Callao,Callao,PE,-12.0516,-77.1345,America/Lima
Meerut,Uttar Pradesh,IN,28.98,77.7064,Asia/Kolkata
Virār,Maharashtra,IN,19.4559,72.8114,Asia/Kolkata
Nowrangapur,Odisha,IN,19.2311,82.5483,Asia/Kolkata
Karbala,Karbala,IQ,32.616,44.0249,Asia/Baghdad
Changzhi,Shanxi,CN,36.1839,113.1053,Asia/Shanghai
Tianshui,Gansu,CN,34.5795,105.7424,Asia/Shanghai
Sadr City,Baghdad,IQ,33.3889,44.4583,Asia/Baghdad
Yangpu,Shanghai,CN,31.2619,121.519,Asia/Shanghai
Mombasa,Mombasa County,KE,-4.0547,39.6636,Africa/Nairobi
Mandalay,Mandalay Region,MM,21.9747,96.0836,Asia/Yangon
Srinagar,Jammu and Kashmir,IN,34.0857,74.8055,Asia/Kolkata
Barranquilla,Atlántico,CO,10.9685,-74.7813,America/Bogota
Chelyabinsk,Chelyabinsk,RU,55.1611,61.4288,Asia/Yekaterinburg
Mérida,Yucatán,MX,20.967,-89.6232,America/Merida
Hiroshima,Hiroshima,JP,34.4,132.45,Asia/Tokyo
Santiago de los Caballeros,Santiago Province,DO,19.4504,-70.6908,America/Santo_Domingo
Shymkent,Shymkent,KZ,42.3099,69.6004,Asia/Almaty
Weinan,Shaanxi,CN,34.5035,109.5089,Asia/Shanghai
Ghāziābād,Uttar Pradesh,IN,28.6654,77.4391,Asia/Kolkata
Matola,Maputo Province,MZ,-25.9622,32.4589,Africa/Maputo
Dhanbad,Jharkhand,IN,23.7976,86.4299,Asia/Kolkata
Arequipa,Arequipa,PE,-16.399,-71.5375,America/Lima
Hong Kong Island,00,HK,22.263,114.1842,Asia/Hong_Kong
Fes,Fes-Meknes,MA,34.0331,-5.0003,Africa/Casablanca
Gustavo Adolfo Madero,Mexico City,MX,19.4939,-99.1107,America/Mexico_City
Nouakchott,,MR,18.0858,-15.9785,Africa/Nouakchott
Kisangani,Tshopo,CD,0.5153,25.191,Africa/Lubumbashi
Jiaxing,Zhejiang,CN,30.7522,120.75,Asia/Shanghai
Aurangabad,Maharashtra,IN,19.8776,75.3423,Asia/Kolkata
Zhongwei,Ningxia,CN,37.5113,105.1907,Asia/Shanghai
Omsk,Omsk Oblast,RU,54.9924,73.3686,Asia/Omsk
Pikine,Dakar,SN,14.7646,-17.3907,Africa/Dakar
Pekanbaru,Riau,ID,0.5167,101.4417,Asia/Jakarta
Panjin,Liaoning,CN,41.121,122.0739,Asia/Shanghai
Bandar Lampung,Lampung,ID,-5.4292,105.2611,Asia/Jakarta
Prague,Prague,CZ,50.088,14.4208,Europe/Prague
Varanasi,Uttar Pradesh,IN,25.3167,83.0104,Asia/Kolkata
Jiujiang,Jiangxi,CN,29.7048,116.0021,Asia/Shanghai
Samara,Samara Oblast,RU,53.2077,50.1355,Europe/Samara
Aba,Abia State,NG,5.1066,7.3667,Africa/Lagos
Amritsar,Punjab,IN,31.6223,74.8753,Asia/Kolkata
Birmingham,England,GB,52.4814,-1.8998,Europe/London
Copenhagen,Capital Region,DK,55.6759,12.5655,Europe/Copenhagen
Sofia,Sofia-Capital,BG,42.6975,23.3241,Europe/Sofia
Anyang,Henan,CN,36.096,114.3828,Asia/Shanghai
Yerevan,Yerevan,AM,40.1776,44.5126,Asia/Yerevan
Luohu District,Guangdong,CN,22.5472,114.1315,Asia/Shanghai
Vijayawada,Andhra Pradesh,IN,16.5074,80.6466,Asia/Kolkata
Fengxiang,Shanghai,CN,30.8584,121.4678,Asia/Shanghai
Bijie,Guizhou,CN,27.3019,105.2863,Asia/Shanghai
Monterrey,Nuevo León,MX,25.6843,-100.3172,America/Monterrey
Kigali,Kigali,RW,-1.95,30.0588,Africa/Kigali
Rostov-on-Don,Rostov,RU,47.22,39.7077,Europe/Moscow
Zhuzhou,Hunan,CN,27.8333,113.15,Asia/Shanghai
Malingao,Soccsksargen,PH,7.1608,124.475,Asia/Manila
Touba,Diourbel Region,SN,14.8623,-15.8753,Africa/Dakar
Ufa,Bashkortostan Republic,RU,54.7431,55.9678,Asia/Yekaterinburg
Ranchi,Jharkhand,IN,23.3432,85.3094,Asia/Kolkata
Shangrao,Jiangxi,CN,28.4518,117.9429,Asia/Shanghai
Lilongwe,Central Region,MW,-13.9669,33.7873,Africa/Blantyre
Huaibei,Anhui,CN,33.9744,116.7917,Asia/Shanghai
Maiduguri,Borno State,NG,11.8469,13.1571,Africa/Lagos
Xuhui,Shanghai,CN,31.1959,121.4471,Asia/Shanghai
Meishan,Sichuan,CN,30.0439,103.837,Asia/Shanghai
Mwanza,Mwanza,TZ,-2.5167,32.9,Africa/Dar_es_Salaam
Ulsan,Ulsan,KR,35.5372,129.3167,Asia/Seoul
Sendai,Miyagi,JP,38.2667,140.8667,Asia/Tokyo
Krasnoyarsk,Krasnoyarsk Krai,RU,56.0374,92.9314,Asia/Krasnoyarsk
Fuzhou,Jiangxi,CN,27.96,116.3333,Asia/Shanghai
Guigang,Guangxi,CN,23.116,109.5947,Asia/Shanghai
Oslo,Oslo,NO,59.9127,10.7461,Europe/Oslo
Jabalpur,Madhya Pradesh,IN,23.167,79.9501,Asia/Kolkata
Ilorin,Kwara State,NG,8.4966,4.5421,Africa/Lagos
Aden,Aden,YE,12.7796,45.0385,Asia/Aden
Bogor,West Java,ID,-6.5944,106.7892,Asia/Jakarta
Ciudad Nezahualcoyotl,México,MX,19.4006,-99.0148,America/Mexico_City
Hengyang,Hunan,CN,26.8895,112.6189,Asia/Shanghai
Prayagraj,Uttar Pradesh,IN,25.4448,81.8432,Asia/Kolkata
Trujillo,La Libertad,PE,-8.116,-79.03,America/Lima
Visakhapatnam,Andhra Pradesh,IN,17.6801,83.2016,Asia/Kolkata
Goyang-si,Gyeonggi-do,KR,37.6564,126.835,Asia/Seoul
Yulin,Guangxi,CN,22.6305,110.1469,Asia/Shanghai
Jodhpur,Rajasthan,IN,26.2684,73.0059,Asia/Kolkata
Gwalior,Madhya Pradesh,IN,26.2298,78.1734,Asia/Kolkata
Jingzhou,Hubei,CN,30.3503,112.1903,Asia/Shanghai
Gqeberha,Eastern Cape,ZA,-33.9611,25.6149,Africa/Johannesburg
Tbilisi,Tbilisi,GE,41.6914,44.8341,Asia/Tbilisi
Voronezh,Voronezh Oblast,RU,51.6683,39.192,Europe/Moscow
Xinxiang,Henan,CN,35.1903,113.8015,Asia/Shanghai
Yichun,Jiangxi,CN,27.8333,114.4,Asia/Shanghai
Sokoto,Sokoto,NG,13.0627,5.2432,Africa/Lagos
Jos,Plateau State,NG,9.9285,8.8921,Africa/Lagos
Tangier,Tanger-Tetouan-Al Hoceima,MA,35.7673,-5.7998,Africa/Casablanca
Teni,Tamil Nadu,IN,10.0112,77.4777,Asia/Kolkata
Xianyang,Shaanxi,CN,34.3378,108.7026,Asia/Shanghai
Mexicali,Baja California,MX,32.6278,-115.4545,America/Tijuana
Pointe-Noire,Pointe-Noire,CG,-4.7761,11.8635,Africa/Brazzaville
Maceió,Alagoas,BR,-9.6658,-35.7353,America/Maceio
Campinas,São Paulo,BR,-22.9056,-47.0608,America/Sao_Paulo
Sanya,Hainan,CN,18.2543,109.5095,Asia/Shanghai
Rangpur,Rangpur Division,BD,25.7466,89.2517,Asia/Dhaka
Kirkuk,Kirkuk,IQ,35.4681,44.3922,Asia/Baghdad
Ashgabat,Ashgabat,TM,37.95,58.3833,Asia/Ashgabat
Shaoguan,Guangdong,CN,24.8,113.5833,Asia/Shanghai
Howrah,West Bengal,IN,22.5769,88.3186,Asia/Kolkata
Raipur,Chhattisgarh,IN,21.2333,81.6333,Asia/Kolkata
Changwon,Gyeongsangnam-do,KR,35.2281,128.6811,Asia/Seoul
Longyan,Fujian,CN,25.0749,117.0178,Asia/Shanghai
Köln,North Rhine-Westphalia,DE,50.9333,6.95,Europe/Berlin
Dublin,Leinster,IE,53.3331,-6.2489,Europe/Dublin
Tiruchirappalli,Tamil Nadu,IN,10.8155,78.6965,Asia/Kolkata
Yongzhou,Hunan,CN,26.4239,111.6131,Asia/Shanghai
Brussels,Brussels Capital,BE,50.8505,4.3488,Europe/Brussels
Zamboanga,Zamboanga Peninsula,PH,6.9103,122.0739,Asia/Manila
Ottawa,Ontario,CA,45.4112,-75.6981,America/Toronto
Huzhou,Zhejiang,CN,30.8703,120.0933,Asia/Shanghai
Volgograd,Volgograd Oblast,RU,48.7138,44.4976,Europe/Volgograd
Khartoum North,Khartoum,SD,15.6493,32.5346,Africa/Khartoum
Edmonton,Alberta,CA,53.5501,-113.4687,America/Edmonton
Odesa,Odesa,UA,46.4857,30.7438,Europe/Kyiv
Wuwei,Gansu,CN,37.9267,102.632,Asia/Shanghai
Jacksonville,Florida,US,30.3322,-81.6556,America/New_York
Fort Worth,Texas,US,32.7254,-97.3208,America/Chicago
Hanzhong,Shaanxi,CN,33.0751,107.0221,Asia/Shanghai
Hezhou,Guangxi,CN,24.4036,111.5667,Asia/Shanghai
Pest,Budapest,HU,47.5,19.0833,Europe/Budapest
Kota,Rajasthan,IN,25.1825,75.8391,Asia/Kolkata
Zhu Cheng City,Shandong,CN,35.995,119.4026,Asia/Shanghai
Shivaji Nagar,Maharashtra,IN,18.5302,73.8526,Asia/Kolkata
Dongying,Shandong,CN,37.4627,118.4917,Asia/Shanghai
Luzhou,Sichuan,CN,28.8903,105.4257,Asia/Shanghai
San Jose,California,US,37.3394,-121.895,America/Los_Angeles
Sholapur,Maharashtra,IN,17.6715,75.9104,Asia/Kolkata
Marrakesh,Marrakesh-Safi,MA,31.6342,-7.9999,Africa/Casablanca
Guatemala City,Guatemala,GT,14.6407,-90.5133,America/Guatemala
Meizhou,Guangdong,CN,24.2886,116.1177,Asia/Shanghai
Yueyang,Hunan,CN,29.3745,113.0948,Asia/Shanghai
Laiwu,Shandong,CN,36.1928,117.6569,Asia/Shanghai
Benxi,Liaoning,CN,41.2886,123.765,Asia/Shanghai
Esenyurt,Istanbul,TR,41.027,28.6773,Europe/Istanbul
Perm,Perm Krai,RU,58.0105,56.2502,Asia/Yekaterinburg
Zaria,Kaduna State,NG,11.1113,7.7227,Africa/Lagos
Kennedy,Bogota D.C.,CO,4.6165,-74.146,America/Bogota
Chiba,Chiba,JP,35.6,140.1167,Asia/Tokyo
Pingdingshan,Henan,CN,33.7309,113.3155,Asia/Shanghai
Ciudad Guayana,Bolívar,VE,8.3512,-62.641,America/Caracas
Sargodha,Punjab,PK,32.0859,72.6742,Asia/Karachi
Austin,Texas,US,30.2672,-97.7431,America/Chicago
Managua,Managua Department,NI,12.1328,-86.2504,America/Managua
Bengbu,Anhui,CN,32.9408,117.3608,Asia/Shanghai
Salé,Rabat-Salé-Kénitra,MA,34.0531,-6.7985,Africa/Casablanca
Jerusalem,Jerusalem,IL,31.769,35.2163,Asia/Jerusalem
Chandigarh,Chandigarh,IN,30.7363,76.7884,Asia/Kolkata
Dnipro,Dnipropetrovsk,UA,48.4666,35.0407,Europe/Kyiv
Cebu City,Central Visayas,PH,10.3167,123.8907,Asia/Manila
Sanhe,Hebei,CN,39.9805,117.0689,Asia/Shanghai
Tiruppur,Tamil Nadu,IN,11.1154,77.3546,Asia/Kolkata
Guwahati,Assam,IN,26.1844,91.7458,Asia/Kolkata
Xiangtan,Hunan,CN,27.85,112.9,Asia/Shanghai
Linfen,Shanxi,CN,36.0889,111.5189,Asia/Shanghai
Victoria,Central and Western,HK,22.2875,114.1442,Asia/Hong_Kong
Zhenjiang,Jiangsu,CN,32.2109,119.4551,Asia/Shanghai
Enugu,Enugu State,NG,6.4413,7.4988,Africa/Lagos
Rosario,Santa Fe,AR,-32.9468,-60.6393,America/Argentina/Cordoba
Sulţānah,Medina Region,SA,24.4926,39.5857,Asia/Riyadh
Huludao,Liaoning,CN,40.7524,120.8355,Asia/Shanghai
Hubballi,Karnataka,IN,15.3478,75.1338,Asia/Kolkata
Padang,West Sumatra,ID,-0.9492,100.3543,Asia/Jakarta
Kitakyushu,Fukuoka,JP,33.8518,130.8503,Asia/Tokyo
Taiz,Ta‘izz,YE,13.5795,44.0209,Asia/Aden
Setagaya,Tokyo,JP,35.6419,139.6472,Asia/Tokyo
Kingston,Kingston,JM,17.997,-76.7936,America/Jamaica
Jing’an,Shanghai,CN,31.22,121.4158,Asia/Shanghai
Baoshan,Yunnan,CN,25.1163,99.1637,Asia/Shanghai
Rui’an,Zhejiang,CN,27.7761,120.6586,Asia/Shanghai
Chihuahua,Chihuahua,MX,28.6353,-106.0889,America/Chihuahua
Nay Pyi Taw,Nay Pyi Taw,MM,19.745,96.1297,Asia/Yangon
Eskişehir,Eskişehir,TR,39.7767,30.5206,Europe/Istanbul
Mysuru,Karnataka,IN,12.2979,76.6393,Asia/Kolkata
Salem,Tamil Nadu,IN,11.6538,78.1554,Asia/Kolkata
São Luís,Maranhão,BR,-2.5297,-44.3028,America/Fortaleza
Seongnam-si,Gyeonggi-do,KR,37.4386,127.1378,Asia/Seoul
Cartagena,Bolívar,CO,10.3982,-75.4933,America/Bogota
Antipolo,Calabarzon,PH,14.6258,121.1225,Asia/Manila
Columbus,Ohio,US,39.9612,-82.9988,America/New_York
Sialkot,Punjab,PK,32.4927,74.5313,Asia/Karachi
Charlotte,North Carolina,US,35.2271,-80.8431,America/New_York
Laibin,Guangxi,CN,23.7474,109.2222,Asia/Shanghai
Warri,Delta,NG,5.5174,5.7501,Africa/Lagos
Naples,Campania,IT,40.8522,14.2681,Europe/Rome
Xiaogan,Hubei,CN,30.9269,113.9222,Asia/Shanghai
Campo Grande,Mato Grosso do Sul,BR,-20.4428,-54.6464,America/Campo_Grande
Ziyang,Sichuan,CN,30.1211,104.6481,Asia/Shanghai
Bobo-Dioulasso,Hauts-Bassins,BF,11.1806,-4.2949,Africa/Ouagadougou
Bahawalpur,Punjab,PK,29.3978,71.6752,Asia/Karachi
Quzhou,Zhejiang,CN,28.9594,118.8686,Asia/Shanghai
Blantyre,Southern Region,MW,-15.785,35.0085,Africa/Blantyre
Donetsk,Donetsk,UA,48.023,37.8022,Europe/Kyiv
Abū Ghurayb,Baghdad,IQ,33.3056,44.1848,Asia/Baghdad
Qom,Qom Province,IR,34.6401,50.8764,Asia/Tehran
Bishkek,Bishkek,KG,42.87,74.59,Asia/Bishkek
Zaozhuang,Shandong,CN,34.8647,117.5542,Asia/Shanghai
Krasnodar,Krasnodar Krai,RU,45.0453,38.9818,Europe/Moscow
Natal,Rio Grande do Norte,BR,-5.795,-35.2094,America/Fortaleza
Pingxiang,Jiangxi,CN,27.6167,113.8535,Asia/Shanghai
Malang,East Java,ID,-7.9797,112.6304,Asia/Jakarta
Cancún,Quintana Roo,MX,21.1743,-86.8466,America/Cancun
Indianapolis,Indiana,US,39.7684,-86.158,America/Indiana/Indianapolis
Gurugram,Haryana,IN,28.4601,77.0263,Asia/Kolkata
Bhubaneswar,Odisha,IN,20.2724,85.8338,Asia/Kolkata
Zhoushan,Zhejiang,CN,29.9887,122.2049,Asia/Shanghai
Qiqihar,Heilongjiang,CN,47.3392,123.9615,Asia/Shanghai
Mulenvos,Luanda,AO,-8.8669,13.3344,Africa/Luanda
Sulaymaniyah,Sulaymaniyah,IQ,35.565,45.4329,Asia/Baghdad
Marseille,Provence-Alpes-Côte d'Azur,FR,43.297,5.3811,Europe/Paris
Puning,Guangdong,CN,23.3107,116.1687,Asia/Shanghai
Bhiwandi,Maharashtra,IN,19.3002,73.0588,Asia/Kolkata
Soshanguve,Gauteng,ZA,-25.4729,28.0992,Africa/Johannesburg
Teresina,Piauí,BR,-5.0892,-42.8019,America/Fortaleza
Ankang,Shaanxi,CN,32.68,109.0172,Asia/Shanghai
Jalandhar,Punjab,IN,31.3256,75.5792,Asia/Kolkata
Rotterdam,South Holland,NL,51.9225,4.4792,Europe/Amsterdam
Langfang,Hebei,CN,39.5208,116.7147,Asia/Shanghai
Duque de Caxias,Rio de Janeiro,BR,-22.7856,-43.3117,America/Sao_Paulo
Viana,Luanda,AO,-8.9055,13.375,Africa/Luanda
Jiaozuo,Henan,CN,35.2392,113.2391,Asia/Shanghai
Samarinda,East Kalimantan,ID,-0.4917,117.1458,Asia/Makassar
Rohini,Delhi,IN,28.7432,77.0678,Asia/Kolkata
Wanxian,Chongqing,CN,30.816,108.3741,Asia/Shanghai
Guang’an,Sichuan,CN,30.4741,106.637,Asia/Shanghai
Johor Bahru,Johor,MY,1.4655,103.7578,Asia/Kuala_Lumpur
Arifwala,Punjab,PK,30.2906,73.0657,Asia/Karachi
Pasig City,National Capital Region,PH,14.5869,121.0614,Asia/Manila
Cheongju-si,North Chungcheong,KR,36.6372,127.4897,Asia/Seoul
Kanayannur,Kerala,IN,9.9667,76.2667,Asia/Kolkata
Tegucigalpa,Francisco Morazán Department,HN,14.0818,-87.2068,America/Tegucigalpa
Bucheon-si,Gyeonggi-do,KR,37.4989,126.7831,Asia/Seoul
Thanh Hóa,Thanh Hóa Province,VN,19.8,105.7667,Asia/Bangkok
Turin,Piedmont,IT,45.0705,7.6868,Europe/Rome
Al Ain City,Abu Dhabi,AE,24.1917,55.7606,Asia/Dubai
Libreville,Estuaire,GA,0.3924,9.4536,Africa/Libreville
Saratov,Saratov Oblast,RU,51.5405,45.9901,Europe/Saratov
Ulan Bator,Ulaanbaatar,MN,47.9077,106.8832,Asia/Ulaanbaatar
Weihai,Shandong,CN,37.5091,122.1136,Asia/Shanghai
Takeo,Takeo,KH,10.9908,104.785,Asia/Phnom_Penh
Nova Iguaçu,Rio de Janeiro,BR,-22.7592,-43.4511,America/Sao_Paulo
Cochabamba,Cochabamba,BO,-17.3819,-66.1599,America/La_Paz
Ahvaz,Khuzestan,IR,31.319,48.6842,Asia/Tehran
Vientiane,Vientiane Prefecture,LA,17.9667,102.6,Asia/Vientiane
São Bernardo do Campo,São Paulo,BR,-23.6939,-46.565,America/Sao_Paulo
Zhabei,Shanghai,CN,31.2586,121.4597,Asia/Shanghai
Xinyu,Jiangxi,CN,27.8043,114.9334,Asia/Shanghai
Pietermaritzburg,KwaZulu-Natal,ZA,-29.6168,30.3928,Africa/Johannesburg
Yibin,Sichuan,CN,28.7593,104.6399,Asia/Shanghai
Naucalpan de Juárez,México,MX,19.4785,-99.2396,America/Mexico_City
Kampung Baru Subang,Selangor,MY,3.15,101.5333,Asia/Kuala_Lumpur
Bouaké,Vallée du Bandama District,CI,7.6939,-5.0303,Africa/Abidjan
Taicang,Jiangsu,CN,31.4478,121.0939,Asia/Shanghai
San Francisco,California,US,37.7749,-122.4194,America/Los_Angeles
Sakai,Osaka,JP,34.5822,135.4665,Asia/Tokyo
Valencia,Valencia,ES,39.4739,-0.3797,Europe/Madrid
Jinshan,Shanghai,CN,30.8356,121.2937,Asia/Shanghai
Chenzhou,Hunan,CN,25.8,113.0333,Asia/Shanghai
João Pessoa,Paraíba,BR,-7.115,-34.8631,America/Fortaleza
Bukavu,South Kivu,CD,-2.4908,28.8428,Africa/Lubumbashi
Kraków,Lesser Poland,PL,50.0614,19.9366,Europe/Warsaw
Barcelona,Anzoátegui,VE,10.1384,-64.6877,America/Caracas
Bangui,Bangui,CF,4.3612,18.555,Africa/Bangui
Hermosillo,Sonora,MX,29.0887,-110.9668,America/Hermosillo
Bhayandar,Maharashtra,IN,19.3016,72.8511,Asia/Kolkata
Culiacán,Sinaloa,MX,24.8021,-107.3942,America/Mazatlan
Petaling Jaya,Selangor,MY,3.1073,101.6067,Asia/Kuala_Lumpur
Anqing,Anhui,CN,30.5136,117.0472,Asia/Shanghai
Oran,Oran,DZ,35.6991,-0.6359,Africa/Algiers
Freetown,Western Area,SL,8.4871,-13.2356,Africa/Freetown
San Pedro Sula,Cortés Department,HN,15.5059,-88.0259,America/Tegucigalpa
Narela,Delhi,IN,28.8527,77.0929,Asia/Kolkata
Xingtai,Hebei,CN,37.0622,114.4927,Asia/Shanghai
Niigata,Niigata,JP,37.9226,139.0412,Asia/Tokyo
Muscat,Muscat,OM,23.5841,58.4078,Asia/Muscat
Zarqa,Zarqa,JO,32.0727,36.088,Asia/Amman
Çankaya,Ankara,TR,39.9179,32.8627,Europe/Istanbul
Küçükçekmece,Istanbul,TR,40.991,28.7712,Europe/Istanbul
Hamamatsu,Shizuoka,JP,34.7,137.7333,Asia/Tokyo
Kolwezi,Lualaba,CD,-10.7148,25.4667,Africa/Lubumbashi
Vinh,Nghệ An Province,VN,18.6734,105.6923,Asia/Bangkok
Thiruvananthapuram,Kerala,IN,8.4855,76.9492,Asia/Kolkata
Zhaotong,Yunnan,CN,27.3167,103.7167,Asia/Shanghai
Panzhihua,Sichuan,CN,26.5851,101.7128,Asia/Shanghai
Chuzhou,Anhui,CN,32.3219,118.2978,Asia/Shanghai
Seattle,Washington,US,47.6062,-122.3321,America/Los_Angeles
Port Said,Port Said,EG,31.2653,32.3019,Africa/Cairo
Cúcuta,Norte de Santander Department,CO,7.9074,-72.5049,America/Bogota
Homs,Homs,SY,34.724,36.7256,Asia/Damascus
Xuancheng,Anhui,CN,30.9525,118.7553,Asia/Shanghai
Ibb,Ibb Governorate,YE,13.9667,44.1833,Asia/Aden
Tasikmalaya,West Java,ID,-7.3274,108.2207,Asia/Jakarta
Nampula,Nampula,MZ,-15.1165,39.2666,Africa/Maputo
Shangyu,Zhejiang,CN,30.0156,120.8711,Asia/Shanghai
Bujumbura,Bujumbura Mairie,BI,-3.3819,29.3614,Africa/Bujumbura
Tyumen,Tyumen Oblast,RU,57.1522,65.5272,Asia/Yekaterinburg
Erzurum,Erzurum,TR,39.9086,41.2769,Europe/Istanbul
Anshun,Guizhou,CN,26.25,105.9333,Asia/Shanghai
Dodoma,Dodoma,TZ,-6.1722,35.7395,Africa/Dar_es_Salaam
Rajshahi,Rajshahi Division,BD,24.374,88.6011,Asia/Dhaka
Dera Ismail Khan,Khyber Pakhtunkhwa,PK,31.8313,70.9017,Asia/Karachi
Sorocaba,São Paulo,BR,-23.5017,-47.4581,America/Sao_Paulo
Wuzhou,Guangxi,CN,23.4805,111.2885,Asia/Shanghai
Ipoh,Perak,MY,4.5841,101.0829,Asia/Kuala_Lumpur
Qinhuangdao,Hebei,CN,39.941,119.5894,Asia/Shanghai
Benghazi,Banghazi,LY,32.1149,20.0686,Africa/Tripoli
Uberlândia,Minas Gerais,BR,-18.9186,-48.2772,America/Sao_Paulo
Alīgarh,Uttar Pradesh,IN,27.8815,78.0746,Asia/Kolkata
Shaoyang,Hunan,CN,27.2382,111.4621,Asia/Shanghai
Malatya,Malatya,TR,38.3502,38.3167,Europe/Istanbul
Winnipeg,Manitoba,CA,49.8844,-97.147,America/Winnipeg
Ōta,Tokyo,JP,35.5613,139.716,Asia/Tokyo
Andijon,Andijan Region,UZ,40.7834,72.3507,Asia/Tashkent
Bareilly,Uttar Pradesh,IN,28.3668,79.4317,Asia/Kolkata
Buraydah,Al-Qassim Region,SA,26.326,43.975,Asia/Riyadh
Hegang,Heilongjiang,CN,47.3473,130.2903,Asia/Shanghai
Morelia,Michoacán,MX,19.7008,-101.1844,America/Mexico_City
Riga,Riga,LV,56.946,24.1059,Europe/Riga
Amsterdam,North Holland,NL,52.374,4.8897,Europe/Amsterdam
Cagayan de Oro,Northern Mindanao,PH,8.4822,124.6472,Asia/Manila
Ma’anshan,Anhui,CN,31.6858,118.5101,Asia/Shanghai
Shah Alam,Selangor,MY,3.0851,101.5328,Asia/Kuala_Lumpur
Bağcılar,Istanbul,TR,41.039,28.8567,Europe/Istanbul
Shizuishan,Ningxia,CN,38.9808,106.3892,Asia/Shanghai
Kumamoto,Kumamoto,JP,32.8059,130.6918,Asia/Tokyo
Oyo,Oyo State,NG,7.8537,3.9324,Africa/Lagos
Serang,Banten,ID,-6.1153,106.1542,Asia/Jakarta
Torreón,Coahuila,MX,25.5439,-103.419,America/Monterrey
Deyang,Sichuan,CN,31.1302,104.382,Asia/Shanghai
Abeokuta,Ogun State,NG,7.1557,3.3451,Africa/Lagos
Al Ḩudaydah,Al Hudaydah,YE,14.7978,42.9545,Asia/Aden
Yangquan,Shanxi,CN,37.8575,113.5633,Asia/Shanghai
Akure,Ondo State,NG,7.2526,5.1931,Africa/Lagos
Denver,Colorado,US,39.7392,-104.9847,America/Denver
Osasco,São Paulo,BR,-23.5325,-46.7917,America/Sao_Paulo
Kikolo,Luanda,AO,-8.7815,13.3338,Africa/Luanda
Maianga,Luanda,AO,-8.8469,13.237,Africa/Luanda
São José dos Campos,São Paulo,BR,-23.1794,-45.8869,America/Sao_Paulo
Álvaro Obregón,Mexico City,MX,19.3587,-99.2033,America/Mexico_City
Aihara,Kanagawa,JP,35.6,139.3167,Asia/Tokyo
Evaton,Gauteng,ZA,-26.5333,27.85,Africa/Johannesburg
Valenzuela,National Capital Region,PH,14.7,120.9667,Asia/Manila
Muzaffarābād,Azad Kashmir,PK,34.37,73.4708,Asia/Karachi
Okayama,Okayama,JP,34.65,133.9333,Asia/Tokyo
San Luis Potosí,San Luis Potosí,MX,22.1523,-100.9714,America/Monterrey
Aguascalientes,Aguascalientes,MX,21.8826,-102.2843,America/Mexico_City
General Santos,Soccsksargen,PH,6.1128,125.1717,Asia/Manila
Zhumadian,Henan,CN,32.9838,114.0259,Asia/Shanghai
Morādābād,Uttar Pradesh,IN,28.8389,78.7768,Asia/Kolkata
Sagamihara,Kanagawa,JP,35.5671,139.2417,Asia/Tokyo
Mississauga,Ontario,CA,43.5789,-79.6583,America/Toronto
Lviv,Lviv,UA,49.8383,24.0232,Europe/Kyiv
Namangan,Namangan,UZ,40.9983,71.6726,Asia/Tashkent
Zaporizhzhya,Zaporizhzhia,UA,47.8517,35.1171,Europe/Kyiv
Zanzibar,Zanzibar Urban/West,TZ,-6.1639,39.1979,Africa/Dar_es_Salaam
Saltillo,Coahuila,MX,25.426,-100.9796,America/Monterrey
Latakia,Latakia,SY,35.5312,35.7909,Asia/Damascus
Subang Jaya,Selangor,MY,3.0438,101.5806,Asia/Kuala_Lumpur
Warangal,Telangana,IN,18.0,79.5833,Asia/Kolkata
Paranaque City,National Capital Region,PH,14.4816,121.0175,Asia/Manila
Tolyatti,Samara Oblast,RU,53.5303,49.3461,Europe/Samara
Santo Domingo Oeste,Santo Domingo Province,DO,18.5,-70.0,America/Santo_Domingo
Santo Domingo Este,Santo Domingo Province,DO,18.4851,-69.8476,America/Santo_Domingo
Dhārāvi,Maharashtra,IN,19.05,72.8667,Asia/Kolkata
Battagram,Khyber Pakhtunkhwa,PK,34.6772,73.0233,Asia/Karachi
Suez,Suez,EG,29.9737,32.5263,Africa/Cairo
Changzhi,Shanxi,CN,35.2089,111.7386,Asia/Shanghai
Ribeirão Preto,São Paulo,BR,-21.1775,-47.8103,America/Sao_Paulo
Agadir,Souss-Massa,MA,30.4202,-9.5982,Africa/Casablanca
Edogawe,Tokyo,JP,35.6923,139.8731,Asia/Tokyo
Sarajevo,Federation of B&H,BA,43.8486,18.3564,Europe/Sarajevo
Balikpapan,East Kalimantan,ID,-1.2675,116.8289,Asia/Makassar
Adachi,Tokyo,JP,35.7632,139.8076,Asia/Tokyo
Changning,Shanghai,CN,31.2174,121.421,Asia/Shanghai
Bauchi,Bauchi,NG,10.3103,9.8439,Africa/Lagos
Shizuoka,Shizuoka,JP,34.9833,138.3833,Asia/Tokyo
Tunis,Tunis Governorate,TN,36.819,10.1658,Africa/Tunis
Zhangjiakou,Hebei,CN,40.7834,114.8714,Asia/Shanghai
Washington,District of Columbia,US,38.8951,-77.0364,America/New_York
Nashville,Tennessee,US,36.1659,-86.7844,America/Chicago
Fuxin,Liaoning,CN,42.0156,121.6589,Asia/Shanghai
Ta’if,Mecca Region,SA,21.2703,40.4158,Asia/Riyadh
Changsha,Guangdong,CN,22.3812,112.6849,Asia/Shanghai
Huangshi,Hubei,CN,30.2471,115.0481,Asia/Shanghai
Liaoyang,Liaoning,CN,41.2719,123.1731,Asia/Shanghai
Hlaingthaya,Yangon,MM,16.85,96.0667,Asia/Yangon
Beira,Sofala,MZ,-19.8436,34.8389,Africa/Maputo
Hongkou,Shanghai,CN,31.25,121.4892,Asia/Shanghai
Zaragoza,Aragon,ES,41.6561,-0.8773,Europe/Madrid
Sevilla,Andalusia,ES,37.3828,-5.9732,Europe/Madrid
Baise,Guangxi,CN,23.8901,106.6268,Asia/Shanghai
Pontianak,West Kalimantan,ID,-0.0319,109.325,Asia/Pontianak
Situbondo,East Java,ID,-7.7062,114.0098,Asia/Jakarta
Agege,Lagos,NG,6.6156,3.3334,Africa/Lagos
Binzhou,Shandong,CN,37.3667,118.0167,Asia/Shanghai
Oklahoma City,Oklahoma,US,35.4676,-97.5164,America/Chicago
Yuncheng,Shanxi,CN,35.0231,110.9928,Asia/Shanghai
Dezhou,Shandong,CN,37.4466,116.3671,Asia/Shanghai
Dushanbe,Dushanbe,TJ,38.5358,68.779,Asia/Dushanbe
Cotonou,Littoral,BJ,6.3654,2.4183,Africa/Porto-Novo
El Paso,Texas,US,31.7587,-106.4869,America/Denver
Gorakhpur,Uttar Pradesh,IN,26.7663,83.3689,Asia/Kolkata
Guadalupe,Nuevo León,MX,25.6766,-100.2591,America/Monterrey
Wrocław,Lower Silesia,PL,51.1029,17.0301,Europe/Warsaw
Denpasar,Bali,ID,-8.65,115.2167,Asia/Makassar
Guntur,Andhra Pradesh,IN,16.2997,80.4573,Asia/Kolkata
Katsina,Katsina State,NG,12.9908,7.6018,Africa/Lagos
Sanmenxia,Henan,CN,34.7808,111.1929,Asia/Shanghai
E’zhou,Hubei,CN,30.3961,114.8865,Asia/Shanghai
Madīnat an Naşr,Cairo,EG,30.0667,31.3,Africa/Cairo
Camama,Luanda,AO,-8.9361,13.2652,Africa/Luanda
Tabuk,Tabuk Region,SA,28.3998,36.5715,Asia/Riyadh
Kitwe,Copperbelt,ZM,-12.8024,28.2132,Africa/Lusaka
Bulawayo,Bulawayo,ZW,-20.15,28.5833,Africa/Harare
Mudanjiang,Heilongjiang,CN,44.548,129.6259,Asia/Shanghai
Aracaju,Sergipe,BR,-10.9111,-37.0717,America/Maceio
Joinville,Santa Catarina,BR,-26.3044,-48.8456,America/Sao_Paulo
Athens,Attica,GR,37.9838,23.7278,Europe/Athens
Zagreb,Zagreb,HR,45.8144,15.978,Europe/Zagreb
Leshan,Sichuan,CN,29.5623,103.7639,Asia/Shanghai
Santo André,São Paulo,BR,-23.6639,-46.5383,America/Sao_Paulo
Vancouver,British Columbia,CA,49.2497,-123.1193,America/Vancouver
Rizhao,Shandong,CN,35.4141,119.5291,Asia/Shanghai
Helsinki,Uusimaa,FI,60.1695,24.9354,Europe/Helsinki
Cheonan,Chungcheongnam-do,KR,36.8065,127.1522,Asia/Seoul
Acapulco de Juárez,Guerrero,MX,16.8494,-99.9089,America/Mexico_City
Banjarmasin,South Kalimantan,ID,-3.3199,114.5907,Asia/Makassar
Puducherry,Puducherry,IN,11.9338,79.8298,Asia/Kolkata
Suining,Sichuan,CN,30.508,105.5733,Asia/Shanghai
Brampton,Ontario,CA,43.6834,-79.7663,America/Toronto
Golfe,Luanda,AO,-8.8664,13.2617,Africa/Luanda
Puyang,Henan,CN,35.7564,115.0436,Asia/Shanghai
Soacha,Cundinamarca,CO,4.5794,-74.2168,America/Bogota
Boston,Massachusetts,US,42.3584,-71.0598,America/New_York
Tlalnepantla,México,MX,19.5401,-99.1954,America/Mexico_City
Jājmau,Uttar Pradesh,IN,26.4304,80.4095,Asia/Kolkata
Portland,Oregon,US,45.5234,-122.6762,America/Los_Angeles
Calumbo,Bengo,AO,-9.1469,13.4194,Africa/Luanda
Tlaquepaque,Jalisco,MX,20.6412,-103.2934,America/Mexico_City
Frankfurt am Main,Hesse,DE,50.1155,8.6842,Europe/Berlin
Macau,02,MO,22.2006,113.5461,Asia/Macau
Palermo,Sicily,IT,38.1166,13.3636,Europe/Rome
Izhevsk,Udmurtiya Republic,RU,56.8522,53.1986,Europe/Samara
Colombo,Western Province,LK,6.9355,79.8487,Asia/Colombo
Maturín,Monagas,VE,9.7457,-63.1832,America/Caracas
Amravati,Maharashtra,IN,20.9333,77.75,Asia/Kolkata
Detroit,Michigan,US,42.3314,-83.0457,America/Detroit
Osogbo,Osun State,NG,7.771,4.557,Africa/Lagos
Honchō,Chiba,JP,35.7013,139.9865,Asia/Tokyo
Bikaner,Rajasthan,IN,28.0176,73.3149,Asia/Kolkata
Jaboatão dos Guararapes,Pernambuco,BR,-8.1128,-35.0147,America/Recife
Hoji ya Henda,Luanda,AO,-8.8052,13.2897,Africa/Luanda
Las Vegas,Nevada,US,36.175,-115.1372,America/Los_Angeles
New South Memphis,Tennessee,US,35.0868,-90.0568,America/Chicago
Hwaseong-si,Gyeonggi-do,KR,37.2068,126.8169,Asia/Seoul
Gold Coast,Queensland,AU,-28.0003,153.4309,Australia/Brisbane
Łódź,Łódź Voivodeship,PL,51.7706,19.4739,Europe/Warsaw
Jeonju,Jeollabuk-do,KR,35.8219,127.1489,Asia/Seoul
Chongming,,CN,31.6185,121.6962,Asia/Shanghai
Al Aḩmadī,Al Aḩmadī,KW,29.0769,48.0839,Asia/Kuwait
Cuenca,Azuay,EC,-2.8953,-78.9963,America/Guayaquil
Chisinau,Chișinău Municipality,MD,47.009,28.8594,Europe/Chisinau
Likasi,Haut-Katanga,CD,-10.983,26.7384,Africa/Lubumbashi
Jambi City,Jambi,ID,-1.6,103.6167,Asia/Jakarta
Hebi,Henan,CN,35.7323,114.2862,Asia/Shanghai
Comilla,Chittagong,BD,23.4619,91.185,Asia/Dhaka
Tshikapa,Kasai,CD,-6.4162,20.7999,Africa/Lubumbashi
Chunian,Punjab,PK,30.9662,73.9791,Asia/Karachi
Kochi,Kerala,IN,9.9399,76.2602,Asia/Kolkata
Memphis,Tennessee,US,35.1495,-90.049,America/Chicago
Jingmen,Hubei,CN,31.0336,112.2047,Asia/Shanghai
Barnaul,Altai Krai,RU,53.362,83.7279,Asia/Barnaul
Dandong,Liaoning,CN,40.1292,124.3947,Asia/Shanghai
Piura,Piura,PE,-5.1819,-80.6572,America/Lima
Bhilai,Chhattisgarh,IN,21.2092,81.4285,Asia/Kolkata
Ndola,Copperbelt,ZM,-12.9587,28.6366,Africa/Lusaka
Contagem,Minas Gerais,BR,-19.9317,-44.0536,America/Sao_Paulo
Ulyanovsk,Ulyanovsk,RU,54.3282,48.3866,Europe/Ulyanovsk
Djibouti,Djibouti,DJ,11.589,43.145,Africa/Djibouti
Glasgow,Scotland,GB,55.8651,-4.2576,Europe/London
Panshan,Liaoning,CN,41.1881,122.0494,Asia/Shanghai
Louisville,Kentucky,US,38.2542,-85.7594,America/Kentucky/Louisville
Irkutsk,Irkutsk Oblast,RU,52.2957,104.2908,Asia/Irkutsk
Ansan-si,Gyeonggi-do,KR,37.3236,126.8219,Asia/Seoul
Al Mansurah,Dakahlia,EG,31.0364,31.3807,Africa/Cairo
Kermanshah,Kermanshah Province,IR,34.3142,47.065,Asia/Tehran
Jiaozhou,Shandong,CN,36.2839,120.0033,Asia/Shanghai
Düsseldorf,North Rhine-Westphalia,DE,51.2232,6.7793,Europe/Berlin
Suizhou,Hubei,CN,31.7111,113.3631,Asia/Shanghai
Villa Nueva,Guatemala,GT,14.5251,-90.5854,America/Guatemala
Khabarovsk,Khabarovsk,RU,48.462,135.0971,Asia/Vladivostok
Cuiabá,Mato Grosso,BR,-15.5961,-56.0967,America/Cuiaba
Arusha,Arusha,TZ,-3.3667,36.6833,Africa/Dar_es_Salaam
Feira de Santana,Bahia,BR,-12.2667,-38.9667,America/Bahia
Las Piñas,National Capital Region,PH,14.4506,120.9828,Asia/Manila
Chizhou,Anhui,CN,30.6613,117.4778,Asia/Shanghai
Coyoacán,Mexico City,MX,19.3467,-99.1617,America/Mexico_City
Stuttgart,Baden-Wurttemberg,DE,48.7823,9.177,Europe/Berlin
Ya'an,Sichuan,CN,29.9852,102.999,Asia/Shanghai
Cuttack,Odisha,IN,20.465,85.8793,Asia/Kolkata
Borivli,Maharashtra,IN,19.235,72.8598,Asia/Kolkata
Chiclayo,Lambayeque,PE,-6.7701,-79.855,America/Lima
Yaroslavl,Yaroslavl Oblast,RU,57.6299,39.8737,Europe/Moscow
Gothenburg,Västra Götaland,SE,57.7072,11.9668,Europe/Stockholm
Kawaguchi,Saitama,JP,35.8052,139.7107,Asia/Tokyo
Bukit Rahman Putra,Selangor,MY,3.2173,101.5608,Asia/Kuala_Lumpur
Jhang Sadr,Punjab,PK,31.2698,72.3169,Asia/Karachi
Ha'il,Ha'il Region,SA,27.5219,41.6907,Asia/Riyadh
Bhavnagar,Gujarat,IN,21.7629,72.1533,Asia/Kolkata
Benoni,Gauteng,ZA,-26.1885,28.3208,Africa/Johannesburg
Vladivostok,Primorye,RU,43.1056,131.8735,Asia/Vladivostok
Jinzhou,Liaoning,CN,41.1078,121.1417,Asia/Shanghai
Tuxtla,Chiapas,MX,16.7536,-93.1158,America/Merida
Kryvyy Rih,Dnipropetrovsk,UA,47.9057,33.394,Europe/Kyiv
Sanming,Fujian,CN,26.2486,117.6186,Asia/Shanghai
Islamabad,Islamabad,PK,33.7215,73.0433,Asia/Karachi
Sāngli,Maharashtra,IN,16.8544,74.5642,Asia/Kolkata
Jamnagar,Gujarat,IN,22.4729,70.0667,Asia/Kolkata
Lubango,Huíla,AO,-14.9172,13.4925,Africa/Luanda
Pokhara,Gandaki Pradesh,NP,28.2669,83.9685,Asia/Kathmandu
Shuangyashan,Heilongjiang,CN,46.6769,131.1327,Asia/Shanghai
Borama,Awdal,SO,9.9361,43.1828,Africa/Mogadishu
Pallabi,Dhaka Division,BD,23.825,90.37,Asia/Dhaka
Luancheng,Hebei,CN,37.8845,114.6463,Asia/Shanghai
Makhachkala,Dagestan,RU,42.9778,47.5003,Europe/Moscow
Anyang-si,Gyeonggi-do,KR,37.3925,126.9269,Asia/Seoul
Huambo,Huambo,AO,-12.7761,15.7392,Africa/Luanda
Samarkand,Samarqand Region,UZ,39.6546,66.9644,Asia/Samarkand
Mengzi,Yunnan,CN,23.3678,103.3821,Asia/Shanghai
Kagoshima,Kagoshima,JP,31.5667,130.55,Asia/Tokyo
Mukalla,Muhafazat Hadramaout,YE,14.5425,49.1242,Asia/Aden
Rasht,Gilan Province,IR,37.2761,49.5886,Asia/Tehran
Mar del Plata,Buenos Aires,AR,-38.0004,-57.5562,America/Argentina/Buenos_Aires
Essen,North Rhine-Westphalia,DE,51.4566,7.0123,Europe/Berlin
Al Maḩallah al Kubrá,Gharbia,EG,30.9706,31.1669,Africa/Cairo
Málaga,Andalusia,ES,36.7202,-4.4203,Europe/Madrid
Shekhupura,Punjab,PK,31.7129,73.9856,Asia/Karachi
Yingkou,Liaoning,CN,40.6647,122.2318,Asia/Shanghai
Zhangzhou,Fujian,CN,24.5133,117.6556,Asia/Shanghai
Reynosa,Tamaulipas,MX,26.08,-98.2846,America/Matamoros
Thuận An,Ho Chi Minh City (HCMC),VN,10.9239,106.7143,Asia/Ho_Chi_Minh
Dortmund,North Rhine-Westphalia,DE,51.5149,7.466,Europe/Berlin
Suginami,Ibaraki,JP,36.2013,140.2841,Asia/Tokyo
Baltimore,Maryland,US,39.2904,-76.6122,America/New_York
Itabashi,Tokyo,JP,35.7489,139.715,Asia/Tokyo
New Kingston,Saint Andrew Parish,JM,18.0075,-76.7832,America/Jamaica
Pelentong,Johor,MY,1.5243,103.824,Asia/Kuala_Lumpur
Cimahi,West Java,ID,-6.8722,107.5425,Asia/Jakarta
Londrina,Paraná,BR,-23.3103,-51.1628,America/Sao_Paulo
Bucaramanga,Santander Department,CO,7.125,-73.1189,America/Bogota
Genoa,Liguria,IT,44.4048,8.9444,Europe/Rome
Hachiōji,Tokyo,JP,35.6558,139.3239,Asia/Tokyo
Malacca,Melaka,MY,2.196,102.2405,Asia/Kuala_Lumpur
Nha Trang,Khanh Hoa,VN,12.2451,109.1943,Asia/Ho_Chi_Minh
Kerman,Kerman,IR,30.2832,57.0788,Asia/Tehran
Orūmīyeh,West Azerbaijan,IR,37.5527,45.0761,Asia/Tehran
Bahçelievler,Istanbul,TR,41.0023,28.8598,Europe/Istanbul
Tanta,Gharbia,EG,30.7885,31.0019,Africa/Cairo
Jammu,Jammu and Kashmir,IN,32.7353,74.8617,Asia/Kolkata
Iskandar Puteri,Johor,MY,1.3932,103.6232,Asia/Kuala_Lumpur
Calamba,Calabarzon,PH,14.2117,121.1653,Asia/Manila
Tlalpan,Mexico City,MX,19.2951,-99.1621,America/Mexico_City
Herāt,Herat,AF,34.3482,62.1997,Asia/Kabul
Gujrat,Punjab,PK,32.5742,74.0754,Asia/Karachi
Tomsk,Tomsk Oblast,RU,56.5005,84.9822,Asia/Tomsk
Umraniye,Istanbul,TR,41.0164,29.1248,Europe/Istanbul
Shihezi,Xinjiang,CN,44.3023,86.0369,Asia/Urumqi
South Boston,Massachusetts,US,42.3334,-71.0495,America/New_York
Nakuru,Nakuru County,KE,-0.3072,36.0722,Africa/Nairobi
Hamilton,Ontario,CA,43.2501,-79.8496,America/Toronto
Irbid,Irbid,JO,32.5556,35.85,Asia/Amman
Manchester,England,GB,53.4809,-2.2374,Europe/London
Kota Bharu,Kelantan,MY,6.1236,102.2433,Asia/Kuala_Lumpur
Surrey,British Columbia,CA,49.1063,-122.8251,America/Vancouver
Meknes,Fes-Meknes,MA,33.8935,-5.5473,Africa/Casablanca
Puente Alto,Santiago Metropolitan,CL,-33.6117,-70.5758,America/Santiago
Nyala,Southern Darfur,SD,12.0489,24.8807,Africa/Khartoum
Dresden,Saxony,DE,51.0509,13.7383,Europe/Berlin
Orenburg,Orenburg Oblast,RU,51.7671,55.0988,Asia/Yekaterinburg
Albuquerque,New Mexico,US,35.0845,-106.6511,America/Denver
Bokāro,Jharkhand,IN,23.6693,86.1516,Asia/Kolkata
Asmara,Maekel,ER,15.3381,38.9318,Africa/Asmara
Sukkur,Sindh,PK,27.7032,68.8589,Asia/Karachi
Milwaukee,Wisconsin,US,43.0389,-87.9065,America/Chicago
Chợ Lớn,Ho Chi Minh City (HCMC),VN,10.75,106.65,Asia/Ho_Chi_Minh
Wenchang,Hainan,CN,19.5516,110.8028,Asia/Shanghai
Ile-Ife,Osun State,NG,7.4824,4.5603,Africa/Lagos
Gombe,Gombe State,NG,10.2897,11.1673,Africa/Lagos
Hamhŭng,South Hamgyong,KP,39.9183,127.5364,Asia/Pyongyang
Kemerovo,Kuzbass,RU,55.3542,86.1043,Asia/Novokuznetsk
Nasiriyah,Dhi Qar,IQ,31.058,46.2573,Asia/Baghdad
Bloemfontein,Free State,ZA,-29.1211,26.214,Africa/Johannesburg
Sheffield,England,GB,53.383,-1.4659,Europe/London
Santiago de Cuba,Santiago de Cuba Province,CU,20.0229,-75.8217,America/Havana
Siping,Jilin,CN,43.1614,124.3778,Asia/Shanghai
Cuautitlán Izcalli,México,MX,19.6439,-99.216,America/Mexico_City
Benguela,Benguela,AO,-12.5767,13.4027,Africa/Luanda
Chuxiong,Yunnan,CN,25.0364,101.5456,Asia/Shanghai
Balbala,Djibouti,DJ,11.5619,43.1067,Africa/Djibouti
Huaihua,Hunan,CN,27.5634,110.004,Asia/Shanghai
Muntinlupa,Calabarzon,PH,14.3903,121.0475,Asia/Manila
Bình Thạnh,Ho Chi Minh City (HCMC),VN,10.811,106.706,Asia/Ho_Chi_Minh
Zahedan,Sistan and Baluchestan,IR,29.4963,60.8629,Asia/Tehran
Banqiao,Taipei,TW,25.0143,121.4672,Asia/Taipei
Nanded,Maharashtra,IN,19.1602,77.315,Asia/Kolkata
Kozhikode,Kerala,IN,11.248,75.7804,Asia/Kolkata
Ulanqab,Inner Mongolia,CN,40.993,113.133,Asia/Shanghai
Cabinda,Cabinda,AO,-5.562,12.1948,Africa/Luanda
Ajegunle,Lagos,NG,6.452,3.3312,Africa/Lagos
Pristina,Pristina,XK,42.6727,21.1669,Europe/Belgrade
Jiamusi,Heilongjiang,CN,46.7971,130.3112,Asia/Shanghai
Korla,Xinjiang,CN,41.7606,86.1523,Asia/Urumqi
Kolhāpur,Maharashtra,IN,16.6956,74.2317,Asia/Kolkata
Porto Velho,Rondônia,BR,-8.7619,-63.9039,America/Porto_Velho
San Miguel de Tucumán,Tucuman,AR,-26.816,-65.2105,America/Argentina/Tucuman
Kuantan,Pahang,MY,3.8077,103.326,Asia/Kuala_Lumpur
Sevastopol,Sevastopol City,UA,44.608,33.5213,Europe/Simferopol
Nellore,Andhra Pradesh,IN,14.4499,79.987,Asia/Kolkata
Mirpur Model Thana,Dhaka Division,BD,23.8093,90.3609,Asia/Dhaka
Bremen,Bremen,DE,53.0758,8.8072,Europe/Berlin
Wanning,Hainan,CN,18.7993,110.3841,Asia/Shanghai
Owerri,Imo State,NG,5.4836,7.0332,Africa/Lagos
Kota Kuala Muda,Kedah,MY,5.5882,100.3709,Asia/Kuala_Lumpur
Sungai Petani,Kedah,MY,5.647,100.4877,Asia/Kuala_Lumpur
Xinzhou,Shanxi,CN,38.4092,112.7333,Asia/Shanghai
Kotō,Kumamoto,JP,32.7786,130.7454,Asia/Tokyo
Kalaburagi,Karnataka,IN,17.3358,76.8376,Asia/Kolkata
Tucson,Arizona,US,32.2217,-110.9265,America/Phoenix
Selayang Baru Utara,Selangor,MY,3.2549,101.6668,Asia/Kuala_Lumpur
Vilnius,Vilnius,LT,54.6892,25.2798,Europe/Vilnius
Ajmer,Rajasthan,IN,26.4521,74.6387,Asia/Kolkata
Pingdu,Shandong,CN,36.7844,119.9464,Asia/Shanghai
Fresno,California,US,36.7477,-119.7724,America/Los_Angeles
Mbeya,Mbeya,TZ,-8.9,33.45,Africa/Dar_es_Salaam
Juiz de Fora,Minas Gerais,BR,-21.7642,-43.3503,America/Sao_Paulo
Calabar,Cross River State,NG,4.9589,8.327,Africa/Lagos
Oujda,Oriental,MA,34.6814,-1.9086,Africa/Casablanca
Novokuznetsk,Kuzbass,RU,53.7575,87.136,Asia/Novokuznetsk
Ryazan’,Ryazan Oblast,RU,54.627,39.7041,Europe/Moscow
Ji’an,Jiangxi,CN,27.1172,114.9793,Asia/Shanghai
Sahiwal,Punjab,PK,31.9739,72.3311,Asia/Karachi
Sahiwal,Punjab,PK,30.6659,73.1019,Asia/Karachi
Mersin,Mersin,TR,36.812,34.6389,Europe/Istanbul
Nilüfer,Bursa Province,TR,40.214,28.9157,Europe/Istanbul
Leeds,England,GB,53.7965,-1.5478,Europe/London
Poznań,Greater Poland,PL,52.4069,16.9299,Europe/Warsaw
Guli,Zhejiang,CN,28.8816,120.0331,Asia/Shanghai
Aqsu,Xinjiang,CN,41.1842,80.2792,Asia/Urumqi
Ebute Ikorodu,Lagos,NG,6.6009,3.4882,Africa/Lagos
Ananindeua,Pará,BR,-1.3656,-48.3722,America/Belem
Tanggu,Tianjin,CN,39.0211,117.6469,Asia/Shanghai
Pasir Gudang,Johor,MY,1.462,103.9053,Asia/Kuala_Lumpur
Astrakhan,Astrakhan Oblast,RU,46.3497,48.0408,Europe/Astrakhan
Okara,Punjab,PK,30.8103,73.4515,Asia/Karachi
Nansana,Central Region,UG,0.3639,32.5286,Africa/Kampala
Kimhae,Gyeongsangnam-do,KR,35.2342,128.8811,Asia/Seoul
Ar Raqqah,Raqqa,SY,35.9528,39.0079,Asia/Damascus
Québec,Quebec,CA,46.8123,-71.2145,America/Toronto
Cuauhtémoc,Mexico City,MX,19.4451,-99.1461,America/Mexico_City
Shangluo,Shaanxi,CN,33.8667,109.9306,Asia/Shanghai
Himeji,Hyōgo,JP,34.8167,134.7,Asia/Tokyo
Ibagué,Tolima Department,CO,4.4357,-75.2029,America/Bogota
Antwerp,Flanders,BE,51.2205,4.4003,Europe/Brussels
Assiut,Asyut,EG,27.181,31.1837,Africa/Cairo
Hamadān,Hamadan Province,IR,34.7992,48.5146,Asia/Tehran
Qionghai,Hainan,CN,19.2425,110.4642,Asia/Shanghai
Aparecida de Goiânia,Goiás,BR,-16.8233,-49.2439,America/Sao_Paulo
Cangzhou,Hebei,CN,38.3112,116.8533,Asia/Shanghai
Mohammadpur,Rajshahi Division,BD,24.8984,88.5284,Asia/Dhaka
Surakarta,Central Java,ID,-7.5561,110.8317,Asia/Jakarta
San Salvador,San Salvador Department,SV,13.6893,-89.1872,America/El_Salvador
Beihai,Guangxi,CN,21.4835,109.1155,Asia/Shanghai
Van,Van,TR,38.4946,43.3832,Europe/Istanbul
Sacramento,California,US,38.5816,-121.4944,America/Los_Angeles
Thủ Đức,Ho Chi Minh City (HCMC),VN,10.8486,106.7721,Asia/Ho_Chi_Minh
Üsküdar,Istanbul,TR,41.0227,29.0137,Europe/Istanbul
Penza,Penza Oblast,RU,53.1957,45.0108,Europe/Moscow
Mazār-e Sharīf,Balkh,AF,36.709,67.1109,Asia/Kabul
Kandahār,Kandahar,AF,31.6133,65.7101,Asia/Kabul
Hengshui,Hebei,CN,37.7391,115.6835,Asia/Shanghai
Dehradun,Uttarakhand,IN,30.3244,78.0339,Asia/Kolkata
Erode,Tamil Nadu,IN,11.3428,77.7274,Asia/Kolkata
Lyon,Rhône-Alpes,FR,45.7491,4.8479,Europe/Paris
Salta,Salta,AR,-24.8065,-65.42,America/Argentina/Salta
Serra,Espírito Santo,BR,-20.1286,-40.3078,America/Sao_Paulo
Esenler,Istanbul,TR,41.0435,28.8762,Europe/Istanbul
Daxing’anling,Heilongjiang,CN,52.3338,124.7124,Asia/Shanghai
Qui Nhon,Gia Lai,VN,13.7765,109.2237,Asia/Ho_Chi_Minh
Al Fayyum,Faiyum,EG,29.31,30.8418,Africa/Cairo
Durgapur,West Bengal,IN,23.5158,87.308,Asia/Kolkata
Utsunomiya,Tochigi,JP,36.5667,139.8833,Asia/Tokyo
Victoria de Durango,Durango,MX,24.0203,-104.6576,America/Monterrey
Belford Roxo,Rio de Janeiro,BR,-22.7642,-43.3994,America/Sao_Paulo
Lisbon,Lisbon,PT,38.7251,-9.1498,Europe/Lisbon
Rahim Yar Khan,Punjab,PK,28.4199,70.3034,Asia/Karachi
Ulhasnagar,Maharashtra,IN,19.2167,73.15,Asia/Kolkata
Guangyuan,Sichuan,CN,32.442,105.823,Asia/Shanghai
Loni,Uttar Pradesh,IN,28.7514,77.2902,Asia/Kolkata
Siliguri,West Bengal,IN,26.71,88.4285,Asia/Kolkata
Nuremberg,Bavaria,DE,49.4542,11.0775,Europe/Berlin
Niterói,Rio de Janeiro,BR,-22.8833,-43.1036,America/Sao_Paulo
Ujjain,Madhya Pradesh,IN,23.1824,75.7764,Asia/Kolkata
Hannover,Lower Saxony,DE,52.3705,9.7332,Europe/Berlin
Edinburgh,Scotland,GB,55.9521,-3.1965,Europe/London
Macapá,Amapá,BR,0.0389,-51.0664,America/Belem
Xianning,Hubei,CN,29.8435,114.322,Asia/Shanghai
Toulouse,Occitanie,FR,43.6043,1.4437,Europe/Paris
Thembisa,Gauteng,ZA,-25.9964,28.2268,Africa/Johannesburg
Carrefour,Ouest,HT,18.5333,-72.4,America/Port-au-Prince
Matsuyama,Ehime,JP,33.8392,132.7657,Asia/Tokyo
Bilimora,Gujarat,IN,20.7696,72.9613,Asia/Kolkata
Kasur,Punjab,PK,31.1187,74.4502,Asia/Karachi
Atlanta,Georgia,US,33.749,-84.388,America/New_York
Heroica Matamoros,Tamaulipas,MX,25.8797,-97.5042,America/Matamoros
Makati City,National Capital Region,PH,14.5503,121.0327,Asia/Manila
Buda,Budapest,HU,47.5,19.0333,Europe/Budapest
Tonghua,Jilin,CN,41.7197,125.9264,Asia/Shanghai
"Mianzhu, Deyang, Sichuan",Sichuan,CN,31.3379,104.2206,Asia/Shanghai
Naberezhnyye Chelny,Tatarstan Republic,RU,55.7372,52.4196,Europe/Moscow
Lipetsk,Lipetsk Oblast,RU,52.5876,39.5515,Europe/Moscow
Kikwit,Kwilu,CD,-5.041,18.8162,Africa/Kinshasa
Florianópolis,Santa Catarina,BR,-27.5967,-48.5492,America/Sao_Paulo
Banan,Chongqing,CN,29.3786,106.54,Asia/Shanghai
Newcastle,New South Wales,AU,-32.9295,151.7801,Australia/Sydney
Tuen Mun,Tuen Mun,HK,22.3917,113.9716,Asia/Hong_Kong
Zhangye,Gansu,CN,38.9342,100.4517,Asia/Shanghai
Kirov,Kirov Oblast,RU,58.5981,49.6578,Europe/Kirov
Kashgar,Xinjiang,CN,39.4672,75.9868,Asia/Urumqi
Mukim Pulai,Johor,MY,1.5333,103.6667,Asia/Kuala_Lumpur
Najrān,Najran Region,SA,17.4933,44.1277,Asia/Riyadh
Karol Bāgh,Delhi,IN,28.6514,77.1907,Asia/Kolkata
Zhoukou,Henan,CN,33.6333,114.6333,Asia/Shanghai
Leipzig,Saxony,DE,51.3396,12.3713,Europe/Berlin
Pingliang,Gansu,CN,35.5392,106.6861,Asia/Shanghai
Huangpu,Shanghai,CN,31.2378,121.4781,Asia/Shanghai
Kalininskiy,St.-Petersburg,RU,59.9967,30.3899,Europe/Moscow
Duisburg,North Rhine-Westphalia,DE,51.4325,6.7652,Europe/Berlin
Āsansol,West Bengal,IN,23.6833,86.9833,Asia/Kolkata
Arāk,Markazi,IR,34.0949,49.6981,Asia/Tehran
Maipú,Santiago Metropolitan,CL,-33.5142,-70.7651,America/Santiago
Homyel',Homyel’ Voblasc’,BY,52.4345,30.9754,Europe/Minsk
Aktobe,Aktobe,KZ,50.2797,57.2072,Asia/Aqtobe
Kota Kinabalu,Sabah,MY,5.9749,116.0724,Asia/Kuching
Talatona,Luanda,AO,-8.9178,13.1856,Africa/Luanda
Kampung Larkin Lama,Johor,MY,1.5024,103.744,Asia/Kuala_Lumpur
Kota Damansara,Selangor,MY,3.1545,101.5802,Asia/Kuala_Lumpur
Jalalpur Pirwala,Punjab,PK,29.5051,71.222,Asia/Karachi
Mangaluru,Karnataka,IN,12.9172,74.856,Asia/Kolkata
Zhucheng,Shandong,CN,35.9947,119.3975,Asia/Shanghai
Santa Marta,Magdalena Department,CO,11.2386,-74.1943,America/Bogota
Matsudo,Chiba,JP,35.7799,139.9014,Asia/Tokyo
Hāthazāri,Chittagong,BD,22.5052,91.8134,Asia/Dhaka
Lapu-Lapu City,Central Visayas,PH,10.3103,123.9494,Asia/Manila
Karagandy,Karaganda,KZ,49.8019,73.1021,Asia/Almaty
Loudi,Hunan,CN,27.7344,111.9944,Asia/Shanghai
Liverpool,England,GB,53.4106,-2.9779,Europe/London
Ichikawa,Chiba,JP,35.7341,139.9065,Asia/Tokyo
Bāndarban,Chittagong,BD,22.1953,92.2195,Asia/Dhaka
Sha Tin,Sha Tin,HK,22.3833,114.1833,Asia/Hong_Kong
Dera Ghazi Khan,Punjab,PK,30.0459,70.6403,Asia/Karachi
Higashiosaka,Osaka,JP,34.6667,135.5833,Asia/Tokyo
Pindi Bhattian,Punjab,PK,31.8984,73.2734,Asia/Karachi
Cheboksary,Chuvash Republic,RU,56.1322,47.246,Europe/Moscow
Pohang,Gyeongsangbuk-do,KR,36.0292,129.3648,Asia/Seoul
Shanwei,Guangdong,CN,22.782,115.3475,Asia/Shanghai
Montería,Córdoba,CO,8.7508,-75.8782,America/Bogota
Ruiru,Kiambu County,KE,-1.1466,36.9609,Africa/Nairobi
Valledupar,Cesar Department,CO,10.4654,-73.2531,America/Bogota
Belagavi,Karnataka,IN,15.8521,74.5045,Asia/Kolkata
Ajman,Ajman,AE,25.4018,55.4788,Asia/Dubai
Jianshui,Yunnan,CN,24.2774,101.224,Asia/Shanghai
Sancaktepe,Istanbul,TR,41.0024,29.2319,Europe/Istanbul
Port Sudan,Red Sea,SD,19.6175,37.2164,Africa/Khartoum
Toluca,México,MX,19.2879,-99.6532,America/Mexico_City
Ciudad López Mateos,México,MX,19.5579,-99.2567,America/Mexico_City
Al Khuşūş,Qalyubia,EG,30.1529,31.315,Africa/Cairo
Jeju City,Jeju-do,KR,33.5097,126.5219,Asia/Seoul
Gdańsk,Pomerania,PL,54.3523,18.6491,Europe/Warsaw
Miami,Florida,US,25.7743,-80.1937,America/New_York
Omaha,Nebraska,US,41.2563,-95.9404,America/Chicago
Nishinomiya,Hyōgo,JP,34.7156,135.332,Asia/Tokyo
Masina,Kinshasa,CD,-4.3836,15.3914,Africa/Kinshasa
Sahāranpur,Uttar Pradesh,IN,29.9679,77.5452,Asia/Kolkata
Vellore,Tamil Nadu,IN,12.9184,79.1325,Asia/Kolkata
Kurashiki,Okayama,JP,34.5833,133.7667,Asia/Tokyo
Campos dos Goytacazes,Rio de Janeiro,BR,-21.7523,-41.3304,America/Sao_Paulo
Angeles City,Central Luzon,PH,15.15,120.5833,Asia/Manila
Bhātpāra,West Bengal,IN,22.8664,88.4011,Asia/Kolkata
Jijiga,Somali,ET,9.35,42.8,Africa/Addis_Ababa
Tula,Tula Oblast,RU,54.1961,37.6182,Europe/Moscow
Najaf,Najaf,IQ,32.0259,44.3462,Asia/Baghdad
Raleigh,North Carolina,US,35.7721,-78.6386,America/New_York
Imus,Calabarzon,PH,14.4297,120.9367,Asia/Manila
Xichang,Sichuan,CN,27.8964,102.2634,Asia/Shanghai
Malegaon,Maharashtra,IN,20.5497,74.5346,Asia/Kolkata
São José do Rio Preto,São Paulo,BR,-20.8197,-49.3794,America/Sao_Paulo
Caxias do Sul,Rio Grande do Sul,BR,-29.1681,-51.1794,America/Sao_Paulo
Karabağlar,İzmir Province,TR,38.382,27.132,Europe/Istanbul
Okene,Kogi State,NG,7.5512,6.2359,Africa/Lagos
Uijeongbu-si,Gyeonggi-do,KR,37.7415,127.0474,Asia/Seoul
Bristol,England,GB,51.4552,-2.5966,Europe/London
East London,Eastern Cape,ZA,-33.0153,27.9116,Africa/Johannesburg
Chéngguān Qū,Tibet,CN,29.6384,91.0444,Asia/Shanghai
Yazd,Yazd Province,IR,31.8972,54.3675,Asia/Tehran
Hargeysa,Woqooyi Galbeed,SO,9.56,44.065,Africa/Mogadishu
Ōita,Oita,JP,33.2333,131.6,Asia/Tokyo
Jincheng,Shanxi,CN,35.5022,112.8328,Asia/Shanghai
Taoyuan,Taiwan,TW,24.9937,121.297,Asia/Taipei
Eldoret,Uasin Gishu County,KE,0.5204,35.2699,Africa/Nairobi
Kansas City,Missouri,US,39.0997,-94.5786,America/Chicago
Yan’an,Shaanxi,CN,36.5989,109.4917,Asia/Shanghai
Kaliningrad,Kaliningrad Oblast,RU,54.7064,20.511,Europe/Kaliningrad
Skopje,Grad Skopje,MK,41.9965,21.4314,Europe/Skopje
Kupang,East Nusa Tenggara,ID,-10.1708,123.6069,Asia/Makassar
Vereeniging,Gauteng,ZA,-26.6731,27.9261,Africa/Johannesburg
The Hague,South Holland,NL,52.0767,4.2986,Europe/Amsterdam
Long Beach,California,US,33.767,-118.1892,America/Los_Angeles
Gaya,Bihar,IN,24.7969,85.0038,Asia/Kolkata
Iloilo,Western Visayas,PH,10.6969,122.5644,Asia/Manila
Shouguang,Shandong,CN,36.88,118.7375,Asia/Shanghai
Jingdezhen,Jiangxi,CN,29.2947,117.2079,Asia/Shanghai
Murcia,Murcia,ES,37.987,-1.13,Europe/Madrid
Mesa,Arizona,US,33.4223,-111.8226,America/Phoenix
Halifax,Nova Scotia,CA,44.6427,-63.5769,America/Halifax
Morogoro,Morogoro,TZ,-6.821,37.6612,Africa/Dar_es_Salaam
Marikina City,National Capital Region,PH,14.6481,121.1133,Asia/Manila
Kenitra,Rabat-Salé-Kénitra,MA,34.261,-6.5802,Africa/Casablanca
Seeb,Muscat,OM,23.6703,58.1891,Asia/Muscat
Jiaojiang,Zhejiang,CN,28.6984,121.4733,Asia/Shanghai
Cilegon,Banten,ID,-6.0144,106.0542,Asia/Jakarta
Mykolayiv,Mykolaiv,UA,46.9763,31.993,Europe/Kyiv
Fukuyama,Hiroshima,JP,34.4833,133.3667,Asia/Tokyo
Staten Island,New York,US,40.5623,-74.1399,America/New_York
Nanping,Fujian,CN,26.645,118.1736,Asia/Shanghai
Pereira,Risaralda Department,CO,4.8143,-75.6949,America/Bogota
Ciudad Apodaca,Nuevo León,MX,25.7814,-100.1891,America/Monterrey
São João de Meriti,Rio de Janeiro,BR,-22.8039,-43.3722,America/Sao_Paulo
Ambattur,Tamil Nadu,IN,13.0982,80.1615,Asia/Kolkata
Kanazawa,Ishikawa,JP,36.6,136.6167,Asia/Tokyo
Gonder,Amhara,ET,12.6,37.4667,Africa/Addis_Ababa
Mandaluyong City,National Capital Region,PH,14.5832,121.0409,Asia/Manila
Mixco,Guatemala,GT,14.6308,-90.6071,America/Guatemala
Longshan,Jilin,CN,42.8854,125.1367,Asia/Shanghai
Ikare,Ondo State,NG,7.5259,5.7534,Africa/Lagos
Nova Vida,Luanda,AO,-8.9055,13.2221,Africa/Luanda
Vũng Tàu,Ho Chi Minh City (HCMC),VN,10.346,107.0843,Asia/Ho_Chi_Minh
Maracay,Aragua,VE,10.2497,-67.5948,America/Caracas
Tamale,Northern,GH,9.4008,-0.8393,Africa/Accra
Heyuan,Guangdong,CN,23.7333,114.6833,Asia/Shanghai
Dĩ An,Ho Chi Minh City (HCMC),VN,10.9068,106.7694,Asia/Ho_Chi_Minh
Kira,Central Region,UG,0.4,32.6333,Africa/Kampala
Esna,Qena,EG,25.2934,32.554,Africa/Cairo
Huangshan,Anhui,CN,29.7114,118.3125,Asia/Shanghai
Ḩamāh,Hama,SY,35.1318,36.7578,Asia/Damascus
Jalgaon,Maharashtra,IN,21.0029,75.566,Asia/Kolkata
Kurnool,Andhra Pradesh,IN,15.8289,78.036,Asia/Kolkata
Yola,Adamawa,NG,9.2084,12.4815,Africa/Lagos
Rạch Giá,An Giang,VN,10.0124,105.0809,Asia/Ho_Chi_Minh
Amagasaki,Hyōgo,JP,34.7167,135.4167,Asia/Tokyo
Manado,North Sulawesi,ID,1.4822,124.8489,Asia/Makassar
Santo Domingo de los Colorados,Santo Domingo de los Tsáchilas,EC,-0.2537,-79.1763,America/Guayaquil
Ţarţūs,Tartus,SY,34.889,35.8866,Asia/Damascus
Mek'ele,Tigray,ET,13.4967,39.4753,Africa/Addis_Ababa
Nazrēt,Oromiya,ET,8.55,39.2667,Africa/Addis_Ababa
Colorado Springs,Colorado,US,38.8339,-104.8214,America/Denver
Huancayo,Junin,PE,-12.0687,-75.2103,America/Lima
Al Hillah,Babil,IQ,32.4637,44.4196,Asia/Baghdad
Mbandaka,Équateur,CD,0.0486,18.2603,Africa/Kinshasa
Malanje,Malanje,AO,-9.5402,16.341,Africa/Luanda
Namp’o,Nampo,KP,38.7375,125.4078,Asia/Pyongyang
Ciudad General Escobedo,Nuevo León,MX,25.7966,-100.3177,America/Monterrey
Bacolod City,Western Visayas,PH,10.6667,122.95,Asia/Manila
Virginia Beach,Virginia,US,36.8529,-75.978,America/New_York
Wafangdian,Liaoning,CN,39.6183,122.0081,Asia/Shanghai
Mansilingan,Western Visayas,PH,10.6311,122.9789,Asia/Manila
Kahama,Shinyanga,TZ,-3.8333,32.6,Africa/Dar_es_Salaam
Hsinchu,Taiwan,TW,24.8036,120.9686,Asia/Taipei
Katsushika,Tokyo,JP,35.7333,139.85,Asia/Tokyo
Rāmgundam,Telangana,IN,18.8008,79.4521,Asia/Kolkata
Batman,Batman,TR,37.8874,41.1322,Europe/Istanbul
Yongji,Shanxi,CN,34.8661,110.4403,Asia/Shanghai
Lishui,Zhejiang,CN,28.4604,119.9103,Asia/Shanghai
Udaipur,Rajasthan,IN,24.5858,73.7135,Asia/Kolkata
Warder,Somali,ET,6.9744,45.3408,Africa/Addis_Ababa
Wenshan City,Yunnan,CN,23.3631,104.2505,Asia/Shanghai
Eslamshahr,Tehran,IR,35.5522,51.235,Asia/Tehran
Juba,Central Equatoria,SS,4.8517,31.5825,Africa/Juba
Muratpaşa,Antalya,TR,36.8916,30.765,Europe/Istanbul
Bắc Giang,Bac Ninh,VN,21.2731,106.1946,Asia/Bangkok
Şanlıurfa,Şanlıurfa,TR,37.1671,38.7939,Europe/Istanbul
Chengde,Hebei,CN,40.9519,117.9588,Asia/Shanghai
Kursk,Kursk Oblast,RU,51.7269,36.1846,Europe/Moscow
Maheshtala,West Bengal,IN,22.5086,88.2532,Asia/Kolkata
Nam Định,Ninh Binh,VN,20.4339,106.1773,Asia/Bangkok
Constantine,Constantine,DZ,36.365,6.6147,Africa/Algiers
Patiāla,Punjab,IN,30.3362,76.3922,Asia/Kolkata
Boksburg,Gauteng,ZA,-26.212,28.2596,Africa/Johannesburg
Basuo,Hainan,CN,19.1027,108.6656,Asia/Shanghai
Campina Grande,Paraíba,BR,-7.2306,-35.8811,America/Fortaleza
Ensenada,Baja California,MX,31.8715,-116.6007,America/Tijuana
Elazığ,Elazığ,TR,38.6743,39.2232,Europe/Istanbul
Jundiaí,São Paulo,BR,-23.1864,-46.8842,America/Sao_Paulo
Xochimilco,Mexico City,MX,19.2547,-99.1036,America/Mexico_City
Shyamnagar,West Bengal,IN,22.8333,88.3667,Asia/Kolkata
Dasmariñas,Calabarzon,PH,14.3294,120.9367,Asia/Manila
Zhangjiajie,Hunan,CN,29.1294,110.4783,Asia/Shanghai
Mataram,West Nusa Tenggara,ID,-8.5833,116.1167,Asia/Makassar
Korhogo,Savanes District,CI,9.458,-5.6296,Africa/Abidjan
Piracicaba,São Paulo,BR,-22.7253,-47.6492,America/Sao_Paulo
Fujisawa,Kanagawa,JP,35.3493,139.4767,Asia/Tokyo
Bissau,Bissau,GW,11.8636,-15.5977,Africa/Bissau
Sandakan,Sabah,MY,5.8402,118.1179,Asia/Kuching
Mawlamyine,Mon,MM,16.4905,97.6282,Asia/Yangon
Laval,Quebec,CA,45.5699,-73.692,America/Toronto
Palma,Balearic Islands,ES,39.5694,2.6502,Europe/Madrid
Montes Claros,Minas Gerais,BR,-16.735,-43.8617,America/Sao_Paulo
Sunch’ŏn,South Pyongan,KP,39.4317,125.9328,Asia/Pyongyang
Sultangazi,Istanbul,TR,41.1065,28.8685,Europe/Istanbul
Uyo,Akwa Ibom State,NG,5.0513,7.9335,Africa/Lagos
Bei’an,Heilongjiang,CN,48.2667,126.6,Asia/Shanghai
Davangere,Karnataka,IN,14.4669,75.9269,Asia/Kolkata
Ado-Ekiti,Ekiti State,NG,7.6233,5.2209,Africa/Lagos
Manizales,Caldas Department,CO,5.0668,-75.5068,America/Bogota
Masan,Gwangju,KR,35.1272,126.8315,Asia/Seoul
Buôn Ma Thuột,Dak Lak,VN,12.6675,108.0378,Asia/Ho_Chi_Minh
Stavropol,Stavropol Kray,RU,45.0344,41.9642,Europe/Moscow
Shuozhou,Shanxi,CN,39.3158,112.4225,Asia/Shanghai
Kashiwa,Chiba,JP,35.8622,139.9773,Asia/Tokyo
Ogbomoso,Oyo State,NG,8.1337,4.2401,Africa/Lagos
Tel Aviv,Tel Aviv,IL,32.0809,34.7806,Asia/Jerusalem
Goma,North Kivu,CD,-1.6741,29.2284,Africa/Lubumbashi
Buenaventura,Valle del Cauca Department,CO,3.5833,-77.0,America/Bogota
Welkom,Free State,ZA,-27.9774,26.7351,Africa/Johannesburg
Sham Shui Po,Sham Shui Po District,HK,22.3302,114.1595,Asia/Hong_Kong
Machida,Tokyo,JP,35.5403,139.4508,Asia/Tokyo
Venustiano Carranza,Mexico City,MX,19.4436,-99.105,America/Mexico_City
Zagazig,Sharqia,EG,30.5877,31.502,Africa/Cairo
Vinnytsya,Vinnytsia,UA,49.2322,28.4687,Europe/Kyiv
Ismailia,Ismailia,EG,30.6043,32.2722,Africa/Cairo
Ningde,Fujian,CN,26.6617,119.5228,Asia/Shanghai
Akola,Maharashtra,IN,20.7096,76.9981,Asia/Kolkata
Kima Kieza,Luanda,AO,-8.8341,13.2952,Africa/Luanda
Cusco,Cuzco Department,PE,-13.5319,-71.967,America/Lima
Jiuquan,Gansu,CN,39.7432,98.5174,Asia/Shanghai
Veracruz,Veracruz,MX,19.1809,-96.1429,America/Mexico_City
East Jerusalem,West Bank,PS,31.7834,35.2339,Asia/Hebron
Bryansk,Bryansk Oblast,RU,53.271,34.3214,Europe/Moscow
Maltepe,Istanbul,TR,40.9357,29.1551,Europe/Istanbul
Sumgayit,Sumqayit,AZ,40.5897,49.6686,Asia/Baku
Tando Bago,Sindh,PK,24.7891,68.9654,Asia/Karachi
Kuala Terengganu,Terengganu,MY,5.3302,103.1408,Asia/Kuala_Lumpur
Toyota,Aichi,JP,35.0833,137.15,Asia/Tokyo
Matadi,Bas-Congo,CD,-5.8386,13.4631,Africa/Kinshasa
Al Kharj,Riyadh Region,SA,24.1554,47.3346,Asia/Riyadh
Wong Tai Sin,Wong Tai Sin District,HK,22.35,114.1833,Asia/Hong_Kong
Minna,Niger State,NG,9.6152,6.5478,Africa/Lagos
Mandaluyong,National Capital Region,PH,14.5784,121.0352,Asia/Manila
Xalapa de Enríquez,Veracruz,MX,19.5312,-96.9159,America/Mexico_City
Rajpur Sonarpur,West Bengal,IN,22.4382,88.4321,Asia/Kolkata
Bratislava,Bratislava Region,SK,48.1482,17.1067,Europe/Bratislava
Taman Petaling,Kuala Lumpur,MY,3.1992,101.6498,Asia/Kuala_Lumpur
Shinagawa,Ehime,JP,33.6363,133.0057,Asia/Tokyo
Al Ḩasakah,Al-Hasakah,SY,36.5024,40.7477,Asia/Damascus
Luxor,Luxor,EG,25.6989,32.6421,Africa/Cairo
London,Ontario,CA,42.9834,-81.233,America/Toronto
Awasa,Sidama Region,ET,7.0621,38.4763,Africa/Addis_Ababa
Chimoio,Manica,MZ,-19.1164,33.4833,Africa/Maputo
Tando Allahyar,Sindh,PK,25.4605,68.7174,Asia/Karachi
Daloa,Sassandra-Marahoue,CI,6.8773,-6.4502,Africa/Abidjan
Dingxi,Gansu,CN,35.5709,104.623,Asia/Shanghai
Bamenda,North-West,CM,5.9597,10.146,Africa/Douala
Tver,Tver Oblast,RU,56.8584,35.9006,Europe/Moscow
Thái Nguyên,Thai Nguyen,VN,21.5942,105.8482,Asia/Bangkok
Boa Vista,Roraima,BR,2.8197,-60.6733,America/Boa_Vista
Rio Branco,Acre,BR,-9.9747,-67.81,America/Rio_Branco
Oakland,California,US,37.8044,-122.2708,America/Los_Angeles
Christchurch,Canterbury,NZ,-43.5333,172.6333,Pacific/Auckland
Korba,Chhattisgarh,IN,22.3458,82.6963,Asia/Kolkata
Takamatsu,Kagawa,JP,34.3333,134.05,Asia/Tokyo
Kowloon City,Kowloon City,HK,22.3305,114.1922,Asia/Hong_Kong
Santos,São Paulo,BR,-23.9608,-46.3336,America/Sao_Paulo
Tirana,Tirana,AL,41.3274,19.8187,Europe/Tirane
Petrolina,Pernambuco,BR,-9.3986,-40.5008,America/Recife
Mauá,São Paulo,BR,-23.6678,-46.4614,America/Sao_Paulo
San Juan,San Juan,PR,18.4663,-66.1057,America/Puerto_Rico
Alor Setar,Kedah,MY,6.121,100.3601,Asia/Kuala_Lumpur
Tongchuan,Shaanxi,CN,34.8988,108.9506,Asia/Shanghai
Pasay,National Capital Region,PH,14.5375,121.0014,Asia/Manila
Nuevo Laredo,Tamaulipas,MX,27.4763,-99.5164,America/Matamoros
Toyama,Toyama,JP,36.7,137.2167,Asia/Tokyo
Tétouan,Tanger-Tetouan-Al Hoceima,MA,35.5784,-5.3684,Africa/Casablanca
Zürich,Zurich,CH,47.3667,8.55,Europe/Zurich
Beylikdüzü,Istanbul,TR,40.982,28.6399,Europe/Istanbul
Việt Trì,Phu Tho,VN,21.3227,105.402,Asia/Bangkok
Azcapotzalco,Mexico City,MX,19.487,-99.1859,America/Mexico_City
Tampa,Florida,US,27.9475,-82.4584,America/New_York
Bunamwaya,Central Region,UG,0.2534,32.5572,Africa/Kampala
Magnitogorsk,Chelyabinsk,RU,53.3981,59.0066,Asia/Yekaterinburg
Tulsa,Oklahoma,US,36.154,-95.9928,America/Chicago
Jhānsi,Uttar Pradesh,IN,25.4589,78.5799,Asia/Kolkata
Tseung Kwan O,Sai Kung District,HK,22.3279,114.2499,Asia/Hong_Kong
Ciudad Bolívar,Bolívar,VE,8.1237,-63.5469,America/Caracas
Kampung Kangkar Teberau,Johor,MY,1.532,103.7549,Asia/Kuala_Lumpur
Koumassi,Abidjan Autonomous District,CI,5.2972,-3.9675,Africa/Abidjan
San Nicolás de los Garza,Nuevo León,MX,25.7417,-100.3022,America/Monterrey
Guyuan,Ningxia,CN,36.0067,106.2808,Asia/Shanghai
Wandsbek,Hamburg,DE,53.5833,10.0831,Europe/Berlin
Minneapolis,Minnesota,US,44.98,-93.2638,America/Chicago
Jayapura,Papua,ID,-2.5337,140.7181,Asia/Jayapura
Thoothukudi,Tamil Nadu,IN,8.7674,78.1342,Asia/Kolkata
Ardabīl,Ardabil Province,IR,38.2498,48.2933,Asia/Tehran
Ballari,Karnataka,IN,15.142,76.924,Asia/Kolkata
Chaoyang,Liaoning,CN,41.5703,120.4586,Asia/Shanghai
Gaza,Gaza Strip,PS,31.5016,34.4667,Asia/Gaza
Maringá,Paraná,BR,-23.4253,-51.9386,America/Sao_Paulo
Yokosuka,Kanagawa,JP,35.2836,139.6672,Asia/Tokyo
Kom Ombo,Aswan,EG,24.4767,32.9463,Africa/Cairo
Saltivka,Kharkiv,UA,50.0221,36.349,Europe/Kyiv
Nagasaki,Nagasaki,JP,32.75,129.8833,Asia/Tokyo
Gujangbagh,Xinjiang,CN,37.1093,79.9343,Asia/Urumqi
Tonalá,Jalisco,MX,20.6226,-103.2417,America/Mexico_City
Panama City,Panamá,PA,8.9936,-79.5197,America/Panama
Uvira,South Kivu,CD,-3.3953,29.1378,Africa/Lubumbashi
Hirakata,Osaka,JP,34.8135,135.6491,Asia/Tokyo
Ivanovo,Ivanovo Oblast,RU,56.9999,40.9726,Europe/Moscow
Cumaná,Sucre,VE,10.4639,-64.1786,America/Caracas
Newcastle,KwaZulu-Natal,ZA,-27.758,29.9318,Africa/Johannesburg
Gumi,Gyeongsangbuk-do,KR,36.1136,128.336,Asia/Seoul
Jixi,Heilongjiang,CN,45.2932,130.9622,Asia/Shanghai
Diadema,São Paulo,BR,-23.6861,-46.6228,America/Sao_Paulo
Kuching,Sarawak,MY,1.55,110.3333,Asia/Kuching
Gifu,Gifu,JP,35.4229,136.7604,Asia/Tokyo
Caruaru,Pernambuco,BR,-8.2833,-35.9761,America/Recife
Tongling,Anhui,CN,30.95,117.7833,Asia/Shanghai
Tarlac City,Central Luzon,PH,15.4802,120.5979,Asia/Manila
Toyonaka,Osaka,JP,34.7824,135.4693,Asia/Tokyo
Kassala,Kassala,SD,15.451,36.4,Africa/Khartoum
Miyazaki,Miyazaki,JP,31.9167,131.4167,Asia/Tokyo
Lekki,Lagos,NG,6.4463,3.4772,Africa/Lagos
Antofagasta,Antofagasta,CL,-23.6509,-70.3975,America/Santiago
Wah Cantt,Punjab,PK,33.7709,72.7512,Asia/Karachi
Bhāgalpur,Bihar,IN,25.2445,86.9718,Asia/Kolkata
Agartala,Tripura,IN,23.8361,91.2794,Asia/Kolkata
Dayrah,Dubai,AE,25.2714,55.3021,Asia/Dubai
West Jerusalem,Jerusalem,IL,31.782,35.2196,Asia/Jerusalem
Bida,Niger State,NG,9.0804,6.0099,Africa/Lagos
Bunia,Ituri,CD,1.5594,30.2522,Africa/Lubumbashi
Antakya,Hatay,TR,36.2066,36.1572,Europe/Istanbul
Quận Mười,Ho Chi Minh City (HCMC),VN,10.7682,106.6663,Asia/Ho_Chi_Minh
Sunshine Coast,Queensland,AU,-26.6568,153.0796,Australia/Brisbane
Kisumu,Kisumu County,KE,-0.1022,34.7617,Africa/Nairobi
Luhansk,Luhansk,UA,48.5681,39.3055,Europe/Kyiv
Bengkulu,Bengkulu,ID,-3.8004,102.2655,Asia/Jakarta
Barinas,Barinas,VE,8.6206,-70.231,America/Caracas
Vitória da Conquista,Bahia,BR,-14.8661,-40.8394,America/Bahia
Wichita,Kansas,US,37.6922,-97.3375,America/Chicago
Al Hoceïma,Tanger-Tetouan-Al Hoceima,MA,35.2516,-3.9372,Africa/Casablanca
Szczecin,West Pomerania,PL,53.4289,14.553,Europe/Warsaw
Delmas,Ouest,HT,18.5448,-72.3004,America/Port-au-Prince
Vila Velha,Espírito Santo,BR,-20.3297,-40.2925,America/Sao_Paulo
Bologna,Emilia-Romagna,IT,44.4938,11.3387,Europe/Rome
Sejong,Sejong-si,KR,36.5924,127.2922,Asia/Seoul
Cazenga,Luanda,AO,-8.838,13.284,Africa/Luanda
Samsun,Samsun,TR,41.2798,36.3361,Europe/Istanbul
Tallinn,Harjumaa,EE,59.437,24.7535,Europe/Tallinn
Tanga,Tanga,TZ,-5.0689,39.0988,Africa/Dar_es_Salaam
El Obeid,North Kordofan,SD,13.1842,30.2167,Africa/Khartoum
Lobito,Benguela,AO,-12.3644,13.536,Africa/Luanda
Saurimo,Lunda Sul,AO,-9.6608,20.3915,Africa/Luanda
Bauru,São Paulo,BR,-22.3147,-49.0606,America/Sao_Paulo
Bello,Antioquia,CO,6.3373,-75.558,America/Bogota
Pasto,Nariño,CO,1.2146,-77.2785,America/Bogota
Gaomi,Shandong,CN,36.3833,119.7528,Asia/Shanghai
Santa Fe,Santa Fe,AR,-31.6488,-60.7087,America/Argentina/Cordoba
San-Pédro,Bas-Sassandra District,CI,4.7485,-6.6363,Africa/Abidjan
Makurdi,Benue State,NG,7.7337,8.5214,Africa/Lagos
Palu,Central Sulawesi,ID,-0.9083,119.8708,Asia/Makassar
Takoradi,Western,GH,4.8982,-1.7603,Africa/Accra
Samut Prakan,Samut Prakan,TH,13.5976,100.5972,Asia/Bangkok
Arlington,Texas,US,32.7357,-97.1081,America/Chicago
Khamis Mushait,'Asir Region,SA,18.3,42.7333,Asia/Riyadh
Ambato,Tungurahua Province,EC,-1.2491,-78.6167,America/Guayaquil
Carapicuíba,São Paulo,BR,-23.5227,-46.835,America/Sao_Paulo
Ojo de Agua,México,MX,19.6803,-99.01,America/Mexico_City
Windhoek,Khomas Region,NA,-22.5594,17.0832,Africa/Windhoek
Abomey-Calavi,Atlantique,BJ,6.4485,2.3557,Africa/Porto-Novo
Bochum,North Rhine-Westphalia,DE,51.4817,7.2165,Europe/Berlin
Suita,Osaka,JP,34.7614,135.5157,Asia/Tokyo
Benito Juárez,Mexico City,MX,19.3727,-99.1564,America/Mexico_City
Sector 3,Bucharest,RO,44.4234,26.1687,Europe/Bucharest
Chak Jhumra,Punjab,PK,31.5681,73.1832,Asia/Karachi
Kahramanmaraş,Kahramanmaraş,TR,37.5847,36.9264,Europe/Istanbul
Chongzuo,Guangxi,CN,22.3816,107.3683,Asia/Shanghai
Grajaú,São Paulo,BR,-23.7698,-46.6711,America/Sao_Paulo
Okazaki,Aichi,JP,34.95,137.1667,Asia/Tokyo
Xico,México,MX,19.2703,-98.9509,America/Mexico_City
Iztacalco,Mexico City,MX,19.3953,-99.0978,America/Mexico_City
Kākināda,Andhra Pradesh,IN,16.9604,82.2381,Asia/Kolkata
Betim,Minas Gerais,BR,-19.9678,-44.1983,America/Sao_Paulo
Las Palmas de Gran Canaria,Canary Islands,ES,28.1018,-15.4157,Atlantic/Canary
Cotabato,Autonomous Region in Muslim Mindanao,PH,7.2236,124.2464,Asia/Manila
Bawshar,Muscat,OM,23.5777,58.3998,Asia/Muscat
Latur,Maharashtra,IN,18.3972,76.5678,Asia/Kolkata
Tanzhou,Guangdong,CN,22.255,113.4669,Asia/Shanghai
Wellington,Wellington Region,NZ,-41.2866,174.7756,Pacific/Auckland
Mazatlán,Sinaloa,MX,23.2216,-106.4189,America/Mazatlan
Nizhny Tagil,Sverdlovsk Oblast,RU,57.9194,59.965,Asia/Yekaterinburg
Irapuato,Guanajuato,MX,20.671,-101.3558,America/Mexico_City
Ichinomiya,Aichi,JP,35.3,136.8,Asia/Tokyo
Aswān,Aswan,EG,24.0908,32.8994,Africa/Cairo
Brno,South Moravian,CZ,49.1952,16.608,Europe/Prague
Iaşi,Iași County,RO,47.1667,27.6,Europe/Bucharest
Krugersdorp,Gauteng,ZA,-26.0858,27.7752,Africa/Johannesburg
Pānihāti,West Bengal,IN,22.6909,88.374,Asia/Kolkata
Shibganj,Rajshahi Division,BD,25.0015,89.3227,Asia/Dhaka
Caucaia,Ceará,BR,-3.7361,-38.6531,America/Fortaleza
Iquitos,Loreto,PE,-3.7481,-73.2529,America/Lima
Toyohashi,Aichi,JP,34.7667,137.3833,Asia/Tokyo
Hechuan,Chongqing,CN,29.9923,106.2646,Asia/Shanghai
Pétionville,Ouest,HT,18.5125,-72.2853,America/Port-au-Prince
Utrecht,Utrecht,NL,52.0908,5.1222,Europe/Amsterdam
Rajamahendravaram,Andhra Pradesh,IN,17.0052,81.7778,Asia/Kolkata
Cariacica,Espírito Santo,BR,-20.2639,-40.42,America/Sao_Paulo
Yogyakarta,Yogyakarta,ID,-7.8014,110.3647,Asia/Jakarta
Dhule,Maharashtra,IN,20.9013,74.7774,Asia/Kolkata
Minato,Wakayama,JP,34.2152,135.1501,Asia/Tokyo
Puchong,Selangor,MY,3.0,101.6167,Asia/Kuala_Lumpur
Ondo,Ondo State,NG,7.0932,4.8353,Africa/Lagos
Rohtak,Haryana,IN,28.8945,76.5892,Asia/Kolkata
Bhawana,Punjab,PK,31.5688,72.6492,Asia/Karachi
Rustenburg,North West,ZA,-25.6676,27.2421,Africa/Johannesburg
Bakersfield,California,US,35.3733,-119.0187,America/Los_Angeles
Xuanhua,Hebei,CN,40.6121,115.0646,Asia/Shanghai
Emalahleni,Mpumalanga,ZA,-25.8713,29.2332,Africa/Johannesburg
Bafoussam,West,CM,5.4778,10.4176,Africa/Douala
Thủ Dầu Một,Ho Chi Minh City (HCMC),VN,10.9804,106.6519,Asia/Ho_Chi_Minh
Takasaki,Gunma,JP,36.3333,139.0167,Asia/Tokyo
Seremban,Negeri Sembilan,MY,2.7297,101.9381,Asia/Kuala_Lumpur
Miguel Hidalgo,Mexico City,MX,19.4341,-99.2002,America/Mexico_City
Nagano,Nagano,JP,36.65,138.1833,Asia/Tokyo
Tawau,Sabah,MY,4.2448,117.8911,Asia/Kuching
Cardiff,Wales,GB,51.48,-3.18,Europe/London
Dachang,Shanghai,CN,31.3087,121.4153,Asia/Shanghai
Đống Đa,Hanoi,VN,21.013,105.825,Asia/Bangkok
Chitungwiza,Harare,ZW,-18.0127,31.0755,Africa/Harare
Fenghuang,Hunan,CN,27.9356,109.5996,Asia/Shanghai
Umuahia,Abia State,NG,5.5249,7.4946,Africa/Lagos
Puerto La Cruz,Anzoátegui,VE,10.2138,-64.6328,America/Caracas
Uşak,Uşak,TR,38.6735,29.4058,Europe/Istanbul
Bharatpur,Bagmati Province,NP,27.6803,84.4365,Asia/Kathmandu
Itaquaquecetuba,São Paulo,BR,-23.4861,-46.3483,America/Sao_Paulo
Natore,Rajshahi Division,BD,24.4111,88.9867,Asia/Dhaka
6th of October City,Giza,EG,29.8167,31.05,Africa/Cairo
Leicester,England,GB,52.6386,-1.1317,Europe/London
Desna,Kyiv City,UA,50.5221,30.6823,Europe/Kyiv
Cascavel,Paraná,BR,-24.9558,-53.4553,America/Sao_Paulo
Sector 6,Bucharest,RO,44.4358,26.0165,Europe/Bucharest
Canberra,Australian Capital Territory,AU,-35.2835,149.1281,Australia/Sydney
Avellaneda,Buenos Aires,AR,-34.6602,-58.3674,America/Argentina/Buenos_Aires
Praia Grande,São Paulo,BR,-24.0058,-46.4028,America/Sao_Paulo
Nara-shi,Nara,JP,34.685,135.8048,Asia/Tokyo
Florence,Tuscany,IT,43.7792,11.2463,Europe/Rome
Ahilyanagar,Maharashtra,IN,19.0946,74.7384,Asia/Kolkata
Kollam,Kerala,IN,8.8811,76.5847,Asia/Kolkata
Huanggang,Hubei,CN,30.4514,114.8704,Asia/Shanghai
Bradford,England,GB,53.7939,-1.7521,Europe/London
Sukabumi,West Java,ID,-6.9181,106.9267,Asia/Jakarta
Bilāspur,Chhattisgarh,IN,22.08,82.1554,Asia/Kolkata
Malabon,National Capital Region,PH,14.6733,120.9397,Asia/Manila
Franca,São Paulo,BR,-20.5386,-47.4008,America/Sao_Paulo
Cleveland,Ohio,US,41.4995,-81.6954,America/New_York
Iseyin,Oyo State,NG,7.9702,3.5963,Africa/Lagos
Etobicoke,Ontario,CA,43.6442,-79.5699,America/Toronto
Yenagoa,Bayelsa State,NG,4.9268,6.2676,Africa/Lagos
Gboko,Benue State,NG,7.3228,9.0011,Africa/Lagos
Samba,Luanda,AO,-8.88,13.1962,Africa/Luanda
Olinda,Pernambuco,BR,-8.0089,-34.8553,America/Recife
Pyeongtaek,Gyeonggi-do,KR,36.9947,127.0889,Asia/Seoul
Petare,Miranda,VE,10.4768,-66.8079,America/Caracas
Bến Cát,Ho Chi Minh City (HCMC),VN,11.15,106.6,Asia/Ho_Chi_Minh
Anqiu,Shandong,CN,36.4342,119.1925,Asia/Shanghai
Alanya,Antalya,TR,36.5438,31.9998,Europe/Istanbul
Larkana,Sindh,PK,27.559,68.212,Asia/Karachi
Al Qadarif,Al Qaḑārif,SD,14.0349,35.3834,Africa/Khartoum
Hrodna,Grodnenskaya,BY,53.6758,23.8289,Europe/Minsk
Cibinong,West Java,ID,-6.4817,106.8542,Asia/Jakarta
Nawabshah,Sindh,PK,26.2394,68.4037,Asia/Karachi
New Orleans,Louisiana,US,29.9547,-90.0751,America/Chicago
Keelung,Taiwan,TW,25.1309,121.7409,Asia/Taipei
Malmö,Skåne,SE,55.6059,13.0007,Europe/Stockholm
Jizhou,Hebei,CN,37.5505,115.5687,Asia/Shanghai
Manukau City,Auckland,NZ,-36.9928,174.8799,Pacific/Auckland
Maradi,Maradi Region,NE,13.5,7.1017,Africa/Niamey
Burewala,Punjab,PK,30.1667,72.65,Asia/Karachi
Ataşehir,Istanbul,TR,40.9833,29.1167,Europe/Istanbul
Blumenau,Santa Catarina,BR,-26.9194,-49.0661,America/Sao_Paulo
Nanqiao,Shanghai,CN,30.9161,121.4494,Asia/Shanghai
Mingora,Khyber Pakhtunkhwa,PK,34.7795,72.3627,Asia/Karachi
Santarém,Pará,BR,-2.4431,-54.7083,America/Santarem
Wuppertal,North Rhine-Westphalia,DE,51.2563,7.1482,Europe/Berlin
Ulan-Ude,Buryatiya Republic,RU,51.8265,107.5998,Asia/Irkutsk
Huocheng,Xinjiang,CN,44.053,80.8717,Asia/Urumqi
Ijebu Ode,Ogun State,NG,6.8194,3.9173,Africa/Lagos
Maseru,Maseru District,LS,-29.3167,27.4833,Africa/Maseru
Bhilwara,Rajasthan,IN,25.3471,74.6408,Asia/Kolkata
Aurora,Colorado,US,39.7294,-104.8319,America/Denver
Vitebsk,Vitebsk,BY,55.1904,30.2049,Europe/Minsk
Sultanbeyli,Istanbul,TR,40.9607,29.2707,Europe/Istanbul
Taraz,Zhambyl,KZ,42.898,71.3733,Asia/Almaty
Yangsan,Gyeongsangnam-do,KR,35.342,129.0336,Asia/Seoul
Dniprovskyi,Kyiv City,UA,50.4537,30.6015,Europe/Kyiv
San Jose del Monte,Central Luzon,PH,14.8139,121.0453,Asia/Manila
Abū al-Kahṣīb,Basra,IQ,30.4431,47.878,Asia/Baghdad
Gwangmyeong,Gyeonggi-do,KR,37.4772,126.8664,Asia/Seoul
Zanjan,Zanjan,IR,36.6764,48.4963,Asia/Tehran
Neiva,Huila Department,CO,2.93,-75.2797,America/Bogota
Iwaki,Fukushima,JP,37.05,140.8833,Asia/Tokyo
Vladimir,Vladimir Oblast,RU,56.1385,40.3998,Europe/Moscow
Tete,Tete,MZ,-16.1564,33.5867,Africa/Maputo
Bacoor,Calabarzon,PH,14.459,120.9385,Asia/Manila
Uberaba,Minas Gerais,BR,-19.7483,-47.9319,America/Sao_Paulo
Wakayama,Wakayama,JP,34.2333,135.1667,Asia/Tokyo
Brahmapur,Odisha,IN,19.3115,84.7929,Asia/Kolkata
Fengshan,Takao,TW,22.6266,120.3613,Asia/Taipei
Fatih,Istanbul,TR,41.0225,28.9408,Europe/Istanbul
Misratah,Misratah,LY,32.3753,15.0925,Africa/Tripoli
Cuíto,Bíe,AO,-12.3833,16.9333,Africa/Luanda
Benito Juarez,Mexico City,MX,19.3984,-99.1577,America/Mexico_City
Kyzylorda,Kyzylorda,KZ,44.8528,65.5092,Asia/Qyzylorda
Sinjhoro,Sindh,PK,26.0301,68.8087,Asia/Karachi
Kawagoe,Saitama,JP,35.9086,139.4853,Asia/Tokyo
Takatsuki,Osaka,JP,34.8483,135.6168,Asia/Tokyo
Muzaffarpur,Bihar,IN,26.1226,85.3906,Asia/Kolkata
Tapachula,Chiapas,MX,14.9054,-92.2589,America/Merida
Lhoka,Tibet,CN,29.243,91.7724,Asia/Shanghai
Villahermosa,Tabasco,MX,17.9862,-92.9393,America/Merida
Setapak,Selangor,MY,3.207,101.727,Asia/Kuala_Lumpur
Mahilyow,Mogilev,BY,53.9088,30.3404,Europe/Minsk
Bandar Abbas,Hormozgan,IR,27.1865,56.2808,Asia/Tehran
Pravyi Bereh,Donetsk,UA,47.115,37.5852,Europe/Kyiv
Yunusobod,Tashkent,UZ,41.3714,69.2794,Asia/Tashkent
Ras Al Khaimah,Ras Al Khaimah,AE,25.7895,55.9432,Asia/Dubai
Cabimas,Zulia,VE,10.3991,-71.4521,America/Caracas
Kendari,Southeast Sulawesi,ID,-3.9778,122.5151,Asia/Makassar
Honolulu,Hawaii,US,21.3069,-157.8583,Pacific/Honolulu
Anaheim,California,US,33.8353,-117.9145,America/Los_Angeles
Tarsus,Mersin,TR,36.9177,34.8928,Europe/Istanbul
Pengze,Jiangxi,CN,29.8988,116.5457,Asia/Shanghai
Bahir Dar,Amhara,ET,11.5936,37.3908,Africa/Addis_Ababa
Punāsa,Madhya Pradesh,IN,22.2351,76.3933,Asia/Kolkata
Al Maḩmūdīyah,Baghdad,IQ,33.0622,44.3656,Asia/Baghdad
Diepsloot,Gauteng,ZA,-25.9331,28.0121,Africa/Johannesburg
Xilinhot,Inner Mongolia,CN,43.9389,116.0702,Asia/Shanghai
São José dos Pinhais,Paraná,BR,-25.5302,-49.2084,America/Sao_Paulo
Quelimane,Zambezia Province,MZ,-17.8786,36.8883,Africa/Maputo
Arkhangel’sk,Arkhangelskaya,RU,64.5461,40.5518,Europe/Moscow
Muzaffarnagar,Uttar Pradesh,IN,29.4709,77.7033,Asia/Kolkata
Hulunbuir,Inner Mongolia,CN,49.2114,119.7558,Asia/Shanghai
Dumai,Riau,ID,1.6671,101.4432,Asia/Jakarta
Shinjuku,Tokyo,JP,35.6912,139.7085,Asia/Tokyo
Sikasso,Sikasso,ML,11.3176,-5.6665,Africa/Bamako
Sanandaj,Kurdistan Province,IR,35.315,46.9988,Asia/Tehran
Chita,Zabaykalskiy (Transbaikal) Kray,RU,52.0431,113.4917,Asia/Chita
San Pedro,Calabarzon,PH,14.3595,121.0473,Asia/Manila
Alicante,Valencia,ES,38.3452,-0.4815,Europe/Madrid
Bimbo,Ombella-M'Poko,CF,4.2567,18.4158,Africa/Bangui
Kalemyo,Sagaing Region,MM,23.1901,94.064,Asia/Yangon
Belfast,Northern Ireland,GB,54.5968,-5.9254,Europe/London
Long Bien,Hanoi,VN,21.0333,105.9,Asia/Bangkok
Camagüey,Camagüey,CU,21.3808,-77.9169,America/Havana
Daye,Hubei,CN,30.0833,114.95,Asia/Shanghai
Bilbao,Basque Country,ES,43.2627,-2.9253,Europe/Madrid
Ambon,Maluku,ID,-3.6958,128.1833,Asia/Jayapura
Brest,Brest,BY,52.1089,23.7175,Europe/Minsk
Ribeirão das Neves,Minas Gerais,BR,-19.7669,-44.0867,America/Sao_Paulo
Chifeng,Inner Mongolia,CN,42.2683,118.9636,Asia/Shanghai
Central Coast,New South Wales,AU,-33.4298,151.3714,Australia/Sydney
Corrientes,Corrientes,AR,-27.4678,-58.8344,America/Argentina/Cordoba
Hŭngnam,South Hamgyong,KP,39.842,127.6321,Asia/Pyongyang
Avadi,Tamil Nadu,IN,13.1147,80.1098,Asia/Kolkata
Yunlong,Jiangsu,CN,34.2528,117.2517,Asia/Shanghai
Koshigaya,Saitama,JP,35.8903,139.7892,Asia/Tokyo
Coventry,England,GB,52.4066,-1.5122,Europe/London
Belgorod,Belgorod Oblast,RU,50.6034,36.5809,Europe/Moscow
Toamasina,Atsinanana,MG,-18.1492,49.4023,Indian/Antananarivo
Logan City,Queensland,AU,-27.6392,153.1094,Australia/Brisbane
Ōtsu,Shiga,JP,35.0,135.8667,Asia/Tokyo
Kosti,White Nile,SD,13.1629,32.6635,Africa/Khartoum
Qitaihe,Heilongjiang,CN,45.768,130.9953,Asia/Shanghai
Doha,Baladiyat ad Dawhah,QA,25.2855,51.531,Asia/Qatar
Kadapa,Andhra Pradesh,IN,14.48,78.8235,Asia/Kolkata
Nakano,Tokyo,JP,35.7045,139.6695,Asia/Tokyo
Cirebon,West Java,ID,-6.7063,108.557,Asia/Jakarta
Turmero,Aragua,VE,10.2286,-67.4742,America/Caracas
Tokorozawa,Saitama,JP,35.7992,139.469,Asia/Tokyo
Cabanatuan City,Central Luzon,PH,15.4859,120.9665,Asia/Manila
Pizhou,Jiangsu,CN,34.3114,117.9503,Asia/Shanghai
Darnytsya,Kyiv City,UA,50.416,30.6953,Europe/Kyiv
Dire Dawa,Dire Dawa,ET,9.5931,41.8661,Africa/Addis_Ababa
Annaba,Annaba,DZ,36.9,7.7667,Africa/Algiers
Nice,Provence-Alpes-Côte d'Azur,FR,43.7031,7.2661,Europe/Paris
Iligan,Northern Mindanao,PH,8.2289,124.2434,Asia/Manila
Soledad,Atlántico,CO,10.9184,-74.7646,America/Bogota
Temara,Rabat-Salé-Kénitra,MA,33.9287,-6.9066,Africa/Casablanca
Shiqi,Guangdong,CN,22.5168,113.3852,Asia/Shanghai
Paulista,Pernambuco,BR,-7.9408,-34.8731,America/Recife
Obalende,Lagos,NG,6.4469,3.4153,Africa/Lagos
Kukatpally,Telangana,IN,17.4849,78.4138,Asia/Kolkata
Laixi,Shandong,CN,36.8592,120.5269,Asia/Shanghai
Dihok,Duhok,IQ,36.8661,42.9879,Asia/Baghdad
Kaluga,Kaluga Oblast,RU,54.5306,36.27,Europe/Moscow
Bắc Từ Liêm,Hanoi,VN,21.0653,105.7466,Asia/Ho_Chi_Minh
Celaya,Guanajuato,MX,20.5218,-100.814,America/Mexico_City
Serekunda,Banjul,GM,13.4383,-16.6781,Africa/Banjul
Kafrul,Dhaka Division,BD,23.7882,90.3736,Asia/Dhaka
Karşıyaka,İzmir Province,TR,38.4577,27.1142,Europe/Istanbul
Ḩadā’iq al Qubbah,Cairo,EG,30.0884,31.2835,Africa/Cairo
Makiyivka,Donetsk,UA,48.0478,37.9258,Europe/Kyiv
West Raleigh,North Carolina,US,35.7868,-78.6639,America/New_York
Cuernavaca,Morelos,MX,18.9261,-99.2308,America/Mexico_City
Markham,Ontario,CA,43.8668,-79.2663,America/Toronto
São Vicente,São Paulo,BR,-23.9631,-46.3919,America/Sao_Paulo
Kaesŏng,Kaesong,KP,37.9708,126.5544,Asia/Pyongyang
Tungi,Dhaka Division,BD,23.8915,90.4023,Asia/Dhaka
Krasnogvargeisky,St.-Petersburg,RU,59.9731,30.4761,Europe/Moscow
Randburg,Gauteng,ZA,-26.0941,28.0012,Africa/Johannesburg
Safi,Marrakesh-Safi,MA,32.2994,-9.2372,Africa/Casablanca
Simferopol,Crimea,UA,44.9572,34.1108,Europe/Simferopol
Lublin,Lublin,PL,51.2506,22.5701,Europe/Warsaw
Pelotas,Rio Grande do Sul,BR,-31.77,-52.341,America/Sao_Paulo
San José,San José,CR,9.9339,-84.0849,America/Costa_Rica
Orlando,Florida,US,28.5383,-81.3792,America/New_York
Viña del Mar,Valparaiso,CL,-33.0246,-71.5518,America/Santiago
Tieling,Liaoning,CN,42.2931,123.8414,Asia/Shanghai
Qazvin,Qazvin Province,IR,36.2688,50.0041,Asia/Tehran
Asahikawa,Hokkaido,JP,43.7706,142.3649,Asia/Tokyo
Kāmārhāti,West Bengal,IN,22.6711,88.3747,Asia/Kolkata
Tepic,Nayarit,MX,21.5073,-104.8933,America/Mazatlan
Wŏnju,Gangwon-do,KR,37.3514,127.9453,Asia/Seoul
Wad Medani,Al Jazirah,SD,14.4012,33.5199,Africa/Khartoum
Quận Mười Một,Ho Chi Minh City (HCMC),VN,10.7638,106.6436,Asia/Ho_Chi_Minh
Nukus,Karakalpakstan,UZ,42.4586,59.6058,Asia/Samarkand
Konak,İzmir Province,TR,38.4,27.1,Europe/Istanbul
Maebashi,Gunma,JP,36.4,139.0833,Asia/Tokyo
Kita,Tokyo,JP,35.7526,139.7335,Asia/Tokyo
Ciudad Victoria,Tamaulipas,MX,23.7406,-99.1436,America/Monterrey
Soledad de Graciano Sánchez,San Luis Potosí,MX,22.1891,-100.9379,America/Mexico_City
Kochi,Kochi,JP,33.55,133.5333,Asia/Tokyo
Bielefeld,North Rhine-Westphalia,DE,52.0333,8.5333,Europe/Berlin
Blida,Blida,DZ,36.47,2.8277,Africa/Algiers
Kwai Chung,Kwai Tsing District,HK,22.3683,114.1388,Asia/Hong_Kong
Mandaue City,Central Visayas,PH,10.3236,123.9222,Asia/Manila
Ganja,Gǝncǝ,AZ,40.6816,46.3613,Asia/Baku
Khorramshahr,Khuzestan,IR,30.4408,48.1843,Asia/Tehran
Bonn,North Rhine-Westphalia,DE,50.7344,7.0955,Europe/Berlin
Mathura,Uttar Pradesh,IN,27.5035,77.6722,Asia/Kolkata
Hechi,Guangxi,CN,24.6928,108.0838,Asia/Shanghai
Bydgoszcz,Kujawsko-Pomorskie,PL,53.1235,18.0076,Europe/Warsaw
Smolensk,Smolensk Oblast,RU,54.7783,32.0509,Europe/Moscow
Oral,West Kazakhstan,KZ,51.246,51.4256,Asia/Oral
Khorramabad,Lorestan Province,IR,33.4878,48.3558,Asia/Tehran
Soyapango,San Salvador Department,SV,13.7102,-89.1399,America/El_Salvador
Tongshan,Jiangsu,CN,34.1805,117.1571,Asia/Shanghai
Guédiawaye,Dakar,SN,14.7745,-17.4021,Africa/Dakar
Plovdiv,Plovdiv,BG,42.1539,24.75,Europe/Sofia
Ciudad Obregón,Sonora,MX,27.4864,-109.9408,America/Hermosillo
Wŏnsan,Kangwŏn-do,KP,39.1528,127.4436,Asia/Pyongyang
Brent,England,GB,51.5531,-0.3023,Europe/London
Pavlodar,Pavlodar Region,KZ,52.276,76.9688,Asia/Almaty
Chānda,Maharashtra,IN,19.9508,79.2952,Asia/Kolkata
Canoas,Rio Grande do Sul,BR,-29.9178,-51.1836,America/Sao_Paulo
Kōriyama,Fukushima,JP,37.4,140.3833,Asia/Tokyo
Sochi,Krasnodar Krai,RU,43.597,39.7248,Europe/Moscow
Aksaray,Aksaray,TR,38.3725,34.0254,Europe/Istanbul
Vijayapura,Karnataka,IN,16.8244,75.7154,Asia/Kolkata
Chipata,Eastern Province,ZM,-13.6333,32.65,Africa/Lusaka
Chongjin,North Hamgyong,KP,41.7956,129.7758,Asia/Pyongyang
Yanji,Jilin,CN,42.8882,129.5024,Asia/Shanghai
Roodepoort,Gauteng,ZA,-26.1625,27.8725,Africa/Johannesburg
Pucallpa,Ucayali,PE,-8.3791,-74.5539,America/Lima
Mogi das Cruzes,São Paulo,BR,-23.5228,-46.1883,America/Sao_Paulo
Córdoba,Andalusia,ES,37.8916,-4.7728,Europe/Madrid
Birkenhead,England,GB,53.3934,-3.0148,Europe/London
Nantes,Pays de la Loire,FR,47.2172,-1.5534,Europe/Paris
Ilesa,Osun State,NG,7.6279,4.7416,Africa/Lagos
Pekalongan,Central Java,ID,-6.8886,109.6753,Asia/Jakarta
Bhatara,Dhaka Division,BD,23.8,90.45,Asia/Dhaka
Espoo,Uusimaa,FI,60.2052,24.6522,Europe/Helsinki
Kikuyu,Kiambu County,KE,-1.2463,36.6629,Africa/Nairobi
Kluang,Johor,MY,2.0305,103.3169,Asia/Kuala_Lumpur
Lincang,Yunnan,CN,23.8797,100.0945,Asia/Shanghai
Nottingham,England,GB,52.9536,-1.1505,Europe/London
Ramiros,Luanda,AO,-9.0626,13.0456,Africa/Luanda
Al ‘Amārah,Maysan,IQ,31.8356,47.1448,Asia/Baghdad
Volzhsky,Volgograd Oblast,RU,48.7858,44.7797,Europe/Volgograd
Vaughan,Ontario,CA,43.8361,-79.4983,America/Toronto
Xingyi,Guizhou,CN,25.0962,104.9064,Asia/Shanghai
Shivamogga,Karnataka,IN,13.9316,75.5679,Asia/Kolkata
